,route_id,stop_id,stop_name
1,1,1,Aavarampalayam
2,1,2,Ramakrishna Hospital
3,1,3,Womens Polytechnic
4,1,4,Gandhipuram
5,1,5,Alankar - Nanjappa rd
6,1,6,Park Gate - Nanjappa rd
7,1,7,VOC Park
8,1,8,Uppilipalayam - Avinashi rd
9,1,9,Sukravarpettai
10,1,10,Gandhi Park
11,1,11,Pal Company(Aavin)
12,1,12,Lawley Road
13,1,13,Agricultural University
14,1,14,PN pudur - Vadavalli
15,1,15,Mullai Nagar - Vadavalli
16,1,16,Vadavalli
17,1,17,Aalamaram - Vadavalli
18,1,18,Navavoor Pirivu
19,1,19,Kalveerampalayam
20,1,20,Bharathiyar University
21,1,21,IOB Colony - Maruthamalai
22,1,22,Law College
23,1,23,Maruthamalai

24,102,1,Gandhipuram
25,102,2,100 feet/GP
26,102,3,Kalyan - 100ft rd
27,102,4,Karpagam Complex - 100ft
28,102,5,Power House
29,102,6,TVS - MTP rd
30,102,7,Muthu theatre - MTP rd
31,102,8,Murugan mills - MTP rd
32,102,9,Saibaba Kovil
33,102,10,Eru Company - MTP rd
34,102,11,Housing unit - Kovundampalayam
35,102,12,Kavundampalayam
36,102,13,Cheran Nagar - MTP rd
37,102,14,ITI - MTP rd
38,102,15,GN mills - MTP rd
39,102,16,Vellakinar Pirivu - MTP rd
40,102,17,Thudiyalur
41,102,18,Vadamadurai
42,102,19,NGGO Colony
43,102,20,Kumaran mill - MTP rd
44,102,21,Narasimmanaicken palayam
45,102,22,Ramnarayana mill - MTP rd
46,102,23,LMW - MTP rd
47,102,24,Periyanaickenpalayam
48,102,25,Pricol - MTP rd
49,102,26,Jothipuram
50,102,27,Veerapandi Pirivu - MTP rd
51,102,28,Press Colony - MTP rd



52,102A,1,Gandhipuram
53,102A,2,100 feet/GP
54,102A,3,Kalyan - 100ft rd
55,102A,4,Karpagam Complex - 100ft
56,102A,5,Power House
57,102A,6,TVS - MTP rd
58,102A,7,Muthu theatre - MTP rd
59,102A,8,Murugan mills - MTP rd
60,102A,9,Saibaba Kovil
61,102A,10,Eru Company - MTP rd
62,102A,11,Housing unit - Kovundampalayam
63,102A,12,Kavundampalayam
64,102A,13,Cheran Nagar - MTP rd
65,102A,14,ITI - MTP rd
66,102A,15,GN mills - MTP rd
67,102A,16,Vellakinar Pirivu - MTP rd
68,102A,17,Thudiyalur
69,102A,18,Vadamadurai
70,102A,19,NGGO Colony
71,102A,20,Kumaran mill - MTP rd
72,102A,21,Narasimmanaicken palayam
73,102A,22,Ramnarayana mill - MTP rd
74,102A,23,LMW - MTP rd
75,102A,24,Periyanaickenpalayam
76,102A,25,Pricol - MTP rd
77,102A,26,Jothipuram
78,102A,27,Veerapandi Pirivu - MTP rd
79,102A,28,Press Colony - MTP rd
80,102A,29,Karamadai

81,102B,1,Ukkadam
82,102B,2,BigBazaar
83,102B,3,Town Hall
84,102B,4,Government Hospital
85,102B,5,Railway Station
86,102B,6,Collectorate/DSP
87,102B,7,Uppilipalayam - Avinashi rd
88,102B,8,VOC Park
89,102B,9,Park Gate - Nanjappa rd
90,102B,10,Alankar - Nanjappa rd
91,102B,11,Gandhipuram
92,102B,12,100 feet/GP
93,102B,13,Kalyan - 100ft rd
94,102B,14,Karpagam Complex - 100ft
95,102B,15,Power House
96,102B,16,TVS - MTP rd
97,102B,17,Muthu theatre - MTP rd
98,102B,18,Murugan mills - MTP rd
99,102B,19,Saibaba Kovil
100,102B,20,Eru Company - MTP rd
101,102B,21,Housing unit - Kovundampalayam
102,102B,22,Kavundampalayam
103,102B,23,Cheran Nagar - MTP rd
104,102B,24,ITI - MTP rd
105,102B,25,GN mills - MTP rd
106,102B,26,Vellakinar Pirivu - MTP rd
107,102B,27,Thudiyalur
108,102B,28,Vadamadurai
109,102B,29,NGGO Colony
110,102B,30,Kumaran mill - MTP rd
111,102B,31,Narasimmanaicken palayam
112,102B,32,Ramnarayana mill - MTP rd
113,102B,33,LMW - MTP rd
114,102B,34,Periyanaickenpalayam
115,102B,35,Pricol - MTP rd
116,102B,36,Jothipuram
117,102B,37,Veerapandi Pirivu - MTP rd
118,102B,38,Press Colony - MTP rd
119,102B,39,Karamadai



120,102C,1,Gandhipuram
121,102C,2,100 feet/GP
122,102C,3,Kalyan - 100ft rd
123,102C,4,Karpagam Complex - 100ft
124,102C,5,Power House
125,102C,6,TVS - MTP rd
126,102C,7,Muthu theatre - MTP rd
127,102C,8,Murugan mills - MTP rd
128,102C,9,Saibaba Kovil
129,102C,10,Eru Company - MTP rd
130,102C,11,Housing unit - Kovundampalayam
131,102C,12,Kavundampalayam
132,102C,13,Cheran Nagar - MTP rd
133,102C,14,ITI - MTP rd
134,102C,15,GN mills - MTP rd
135,102C,16,Vellakinar Pirivu - MTP rd
136,102C,17,Thudiyalur
137,102C,18,Vadamadurai
138,102C,19,NGGO Colony
139,102C,20,Kumaran mill - MTP rd
140,102C,21,Narasimmanaicken palayam
141,102C,22,Ramnarayana mill - MTP rd
142,102C,23,LMW - MTP rd
143,102C,24,Periyanaickenpalayam
144,102C,25,Pricol - MTP rd
145,102C,26,Jothipuram
146,102C,27,Veerapandi Pirivu - MTP rd
147,102C,28,Press Colony - MTP rd
148,102C,29,Karamadai


173,104,1,Gandhipuram
174,104,2,100 feet/GP
175,104,3,Kalyan - 100ft rd
176,104,4,Karpagam Complex - 100ft
177,104,5,Power House
178,104,6,TVS - MTP rd
179,104,7,Muthu theatre - MTP rd
180,104,8,Murugan mills - MTP rd
181,104,9,Saibaba Kovil
182,104,10,Eru Company - MTP rd
183,104,11,Housing unit - Kovundampalayam
184,104,12,Kavundampalayam
185,104,13,Cheran Nagar - MTP rd
186,104,14,ITI - MTP rd
187,104,15,GN mills - MTP rd
188,104,16,Vellakinar Pirivu - MTP rd
189,104,17,Thudiyalur
190,104,18,Vadamadurai
191,104,19,NGGO Colony
192,104,20,Kumaran mill - MTP rd
193,104,21,Narasimmanaicken palayam
194,104,22,Ramnarayana mill - MTP rd
195,104,23,LMW - MTP rd
196,104,24,Periyanaickenpalayam



197,105,1,Ukkadam
198,105,2,BigBazaar
199,105,3,Town Hall
200,105,4,Government Hospital
201,105,5,Rainbow - Trichy rd
202,105,6,Sreepathi/Kannan
203,105,7,Sungam
204,105,8,Olympus - Ramanathapuram
205,105,9,Ramanathapuram
206,105,10,Sowripalayam Pirivu
207,105,11,Iyer Hospital - Trichy rd
208,105,12,Central studio - SInganallur
209,105,13,Rajalakshmi mills/PERKS
210,105,14,Boat House - Singanallur
211,105,15,Housing Unit - Singanallur
212,105,16,Singanallur
213,105,17,Vasantha mills - Singanallur
214,105,18,Jai Shanthi - Singanallur
215,105,19,Ondipudur
216,105,20,Irugur Pirivu
217,105,21,Sinthamanipudur
218,105,22,Pappampatti Pirivu
219,105,23,Ravathur Pirivu
220,105,24,Kumaran Kottam - Trichy road
221,105,25,Ranganathapuram - Sulur
222,105,26,Sulur
223,105,27,RVS - Sulur
224,105,28,Kangeyampalayam
225,105,29,Sulur Aero
226,105,30,Karanampettai


227,105B,1,Ukkadam
228,105B,2,BigBazaar
229,105B,3,Town Hall
230,105B,4,Government Hospital
231,105B,5,Rainbow - Trichy rd
232,105B,6,Sreepathi/Kannan
233,105B,7,Sungam
234,105B,8,Olympus - Ramanathapuram
235,105B,9,Ramanathapuram
236,105B,10,Sowripalayam Pirivu
237,105B,11,Iyer Hospital - Trichy rd
238,105B,12,Central studio - SInganallur
239,105B,13,Rajalakshmi mills/PERKS
240,105B,14,Boat House - Singanallur
241,105B,15,Housing Unit - Singanallur
242,105B,16,Singanallur
243,105B,17,Vasantha mills - Singanallur
244,105B,18,Jai Shanthi - Singanallur
245,105B,19,Ondipudur
246,105B,20,Irugur Pirivu
247,105B,21,Sinthamanipudur
248,105B,22,Pappampatti Pirivu
249,105B,23,Ravathur Pirivu
250,105B,24,Kumaran Kottam - Trichy road
251,105B,25,Ranganathapuram - Sulur
252,105B,26,Sulur
253,105B,27,RVS - Sulur
254,105B,28,Kangeyampalayam
255,105B,29,Sulur Aero
256,105B,30,Karanampettai


257,105C,1,Gandhipuram
258,105C,2,Womens Polytechnic
259,105C,3,Mani School/GKNM Hospl
260,105C,4,Lakshmi Mills Junction
261,105C,5,Nava India - Avinashi rd
262,105C,6,Suguna Kalyana Mandapam
263,105C,7,PSG Tech - Peelamedu
264,105C,8,PSG Krishnammal
265,105C,9,Varatharaja Mills
266,105C,10,Hope College
267,105C,11,Manis Theatre
268,105C,12,Ramanuja Nagar
269,105C,13,LIONs - Singanallur
270,105C,14,ESI - Singanallur
271,105C,15,Varatharajapuram
272,105C,16,Singanallur
273,105C,17,Vasantha mills - Singanallur
274,105C,18,Jai Shanthi - Singanallur
275,105C,19,Ondipudur
276,105C,20,Irugur Pirivu
277,105C,21,Sinthamanipudur
278,105C,22,Pappampatti Pirivu
279,105C,23,Ravathur Pirivu
280,105C,24,Kumaran Kottam - Trichy road
281,105C,25,Ranganathapuram - Sulur
282,105C,26,Sulur
283,105C,27,RVS - Sulur
284,105C,28,Kangeyampalayam
285,105C,29,Sulur Aero
286,105C,30,Karanampettai




287,108A,1,Gandhipuram
288,108A,2,Womens Polytechnic
289,108A,3,Mani School/GKNM Hospl
290,108A,4,Lakshmi Mills Junction
291,108A,5,Nava India - Avinashi rd
292,108A,6,Suguna Kalyana Mandapam
293,108A,7,PSG Tech - Peelamedu
294,108A,8,PSG Krishnammal
295,108A,9,Varatharaja Mills
296,108A,10,Hope College
297,108A,11,Manis Theatre
298,108A,12,Ramanuja Nagar
299,108A,13,LIONs - Singanallur
300,108A,14,ESI - Singanallur
301,108A,15,Varatharajapuram
302,108A,16,Singanallur
303,108A,17,Vasantha mills - Singanallur
304,108A,18,Jai Shanthi - Singanallur
305,108A,19,Ondipudur
306,108A,20,Irugur Pirivu
307,108A,21,Sinthamanipudur
308,108A,22,Pappampatti Pirivu
309,108A,23,Pallapalayam
310,108A,24,Pappampatti
311,108A,25,Kallapalayam - Pappampatti



312,109,1,Saibaba Kovil
313,109,2,Sivanandha Colony
314,109,3,Power House
315,109,4,Karpagam Complex - 100ft
316,109,5,Kalyan - 100ft rd
317,109,6,100 feet/GP
318,109,7,Gandhipuram
319,109,8,Womens Polytechnic
320,109,9,Mani School/GKNM Hospl
321,109,10,Lakshmi Mills Junction
322,109,11,Nava India - Avinashi rd
323,109,12,Suguna Kalyana Mandapam
324,109,13,PSG Tech - Peelamedu
325,109,14,PSG Krishnammal
326,109,15,Varatharaja Mills
327,109,16,Hope College
328,109,17,Manis Theatre
329,109,18,Ramanuja Nagar
330,109,19,LIONs - Singanallur
331,109,20,ESI - Singanallur
332,109,21,Varatharajapuram
333,109,22,Singanallur
334,109,23,Vasantha mills - Singanallur
335,109,24,Jai Shanthi - Singanallur
336,109,25,Ondipudur
337,109,26,Irugur Pirivu
338,109,27,Irugur

339,10A,1,Ukkadam
340,10A,2,BigBazaar
341,10A,3,Town Hall
342,10A,4,Government Hospital
343,10A,5,Railway Station
344,10A,6,Collectorate/DSP
345,10A,7,Uppilipalayam - Avinashi rd
346,10A,8,VOC Park
347,10A,9,Anna Statue - Avinashi rd
348,10A,10,Residency
349,10A,11,Lakshmi Mills Junction
350,10A,12,Nava India - Avinashi rd
351,10A,13,Suguna Kalyana Mandapam
352,10A,14,PSG Tech - Peelamedu
353,10A,15,PSG Krishnammal
354,10A,16,Varatharaja Mills
355,10A,17,Hope College
356,10A,18,CMC - Avinashi rd
357,10A,19,CIT - CODISSIA
358,10A,20,Polytechnic - Avinashi rd
359,10A,21,PSG Arts
360,10A,22,SITRA/Airport
361,10A,23,KMCH - Avinashi rd
362,10A,24,Goldwins
363,10A,25,Thottipalayam Pirivu
364,10A,26,Rangasamy Goundan pudur
365,10A,27,Chinniyampalayam
366,10A,28,Neelambur
367,10A,29,Arasur - Avinashi road
368,10A,30,Kaniyur
369,10A,31,Karumathampatti
370,10A,32,Somanur



371,10B,1,Saibaba Kovil
372,10B,2,Murugan mills - MTP rd
373,10B,3,Muthu theatre - MTP rd
374,10B,4,TVS - MTP rd
375,10B,5,Power House
376,10B,6,Karpagam Complex - 100ft
377,10B,7,Kalyan - 100ft rd
378,10B,8,100 feet/GP
379,10B,9,Gandhipuram
380,10B,10,Womens Polytechnic
381,10B,11,Mani School/GKNM Hospl
382,10B,12,Lakshmi Mills Junction
383,10B,13,Nava India - Avinashi rd
384,10B,14,Suguna Kalyana Mandapam
385,10B,15,PSG Tech - Peelamedu
386,10B,16,PSG Krishnammal
387,10B,17,Varatharaja Mills
388,10B,18,Hope College
389,10B,19,CMC - Avinashi rd
390,10B,20,CIT - CODISSIA
391,10B,21,Polytechnic - Avinashi rd
392,10B,22,PSG Arts
393,10B,23,SITRA/Airport
394,10B,24,Mahendra - Nehru nagar
395,10B,25,Nehru nagar
396,10B,26,Sharp Industries
397,10B,27,N.G.P Institutes
398,10B,28,Kalappatti

399,10C,1,Edayarpalayam - Thadagam rd
400,10C,2,Sivaji Colony - Thadagam rd
401,10C,3,Kovilmedu
402,10C,4,Velandipalayam
403,10C,5,Venkittapuram
404,10C,6,Saibaba Colony
405,10C,7,Puliamaram stop - NSR rd
406,10C,8,Saibaba Kovil
407,10C,9,Murugan mills - MTP rd
408,10C,10,Muthu theatre - MTP rd
409,10C,11,TVS - MTP rd
410,10C,12,Power House
411,10C,13,Karpagam Complex - 100ft
412,10C,14,Kalyan - 100ft rd
413,10C,15,100 feet/GP
414,10C,16,Gandhipuram
415,10C,17,Womens Polytechnic
416,10C,18,Mani School/GKNM Hospl
417,10C,19,Lakshmi Mills Junction
418,10C,20,Nava India - Avinashi rd
419,10C,21,Suguna Kalyana Mandapam
420,10C,22,PSG Tech - Peelamedu
421,10C,23,PSG Krishnammal
422,10C,24,Varatharaja Mills
423,10C,25,Hope College
424,10C,26,CMC - Avinashi rd
425,10C,27,CIT - CODISSIA
426,10C,28,Polytechnic - Avinashi rd
427,10C,29,PSG Arts
428,10C,30,SITRA/Airport
429,10C,31,KMCH - Avinashi rd
430,10C,32,Goldwins
431,10C,33,Thottipalayam Pirivu
432,10C,34,Rangasamy Goundan pudur
433,10C,35,Chinniyampalayam




434,11,1,Railway Station
435,11,2,Government Hospital
436,11,3,Town Hall
437,11,4,Sukravarpettai
438,11,5,Marakkadai
439,11,6,Flower Market
440,11,7,North Coimbatore/Vadakovai
441,11,8,TVS - MTP rd
442,11,9,Muthu theatre - MTP rd
443,11,10,Murugan mills - MTP rd
444,11,11,Saibaba Kovil
445,11,12,Puliamaram stop - NSR rd
446,11,13,Saibaba Colony
447,11,14,Venkittapuram
448,11,15,Velandipalayam
449,11,16,Kovilmedu
450,11,17,Sivaji Colony - Thadagam rd
451,11,18,Edayarpalayam - Thadagam rd
452,11,19,TVS Nagar - Thadagam rd
453,11,20,KNG Pudur pirivu
454,11,21,Kanuvai




455,111,1,Gandhipuram
456,111,2,100 feet/GP
457,111,3,Omni bus stand
458,111,4,Lakshmi puram - Sathy rd
459,111,5,Textool - Sathy rd
460,111,6,Ganapathy
461,111,7,CMS - Ganapathy
462,111,8,Athipalayam Pirivu - Sathy rd
463,111,9,Bharathi nagar - Sathy rd
464,111,10,Ramakrishna mill - Sathy rd
465,111,11,Sivanandha mill - Sathy rd
466,111,12,SRP mill - Sathy rd
467,111,13,Amman kovil - Saravanampatti
468,111,14,Kalappatti Pirivu - Sathy rd
469,111,15,Saravanampatti
470,111,16,KGISL - Saravanampatti
471,111,17,KCT - Saravanampatti
472,111,18,Vellakinar
473,111,19,Cheran Colony
474,111,20,Thudiyalur
475,111,21,Vellakinar Pirivu - MTP rd
476,111,22,GN mills - MTP rd
477,111,23,ITI - MTP rd
478,111,24,Cheran Nagar - MTP rd
479,111,25,Kavundampalayam
480,111,26,Housing unit - Kovundampalayam
481,111,27,Eru Company - MTP rd
482,111,28,Saibaba Kovil
483,111,29,Sivanandha Colony
484,111,30,Power House
485,111,31,Karpagam Complex - 100ft
486,111,32,Kalyan - 100ft rd



487,111A,1,Gandhipuram
488,111A,2,100 feet/GP
489,111A,3,Kalyan - 100ft rd
490,111A,4,Karpagam Complex - 100ft
491,111A,5,Power House
492,111A,6,Sivanandha Colony
493,111A,7,Saibaba Kovil
494,111A,8,Eru Company - MTP rd
495,111A,9,Housing unit - Kovundampalayam
496,111A,10,Kavundampalayam
497,111A,11,Cheran Nagar - MTP rd
498,111A,12,ITI - MTP rd
499,111A,13,GN mills - MTP rd
500,111A,14,Vellakinar Pirivu - MTP rd
501,111A,15,Thudiyalur
502,111A,16,Cheran Colony
503,111A,17,Vellakinar
504,111A,18,KCT - Saravanampatti
505,111A,19,KGISL - Saravanampatti
506,111A,20,Saravanampatti
507,111A,21,Kalappatti Pirivu - Sathy rd
508,111A,22,Amman kovil - Saravanampatti
509,111A,23,SRP mill - Sathy rd
510,111A,24,Sivanandha mill - Sathy rd
511,111A,25,Ramakrishna mill - Sathy rd
512,111A,26,Bharathi nagar - Sathy rd
513,111A,27,Athipalayam Pirivu - Sathy rd
514,111A,28,CMS - Ganapathy
515,111A,29,Ganapathy
516,111A,30,Textool - Sathy rd
517,111A,31,Lakshmi puram - Sathy rd
518,111A,32,Omni bus stand




519,113,1,Ondipudur
520,113,2,Jai Shanthi - Singanallur
521,113,3,Vasantha mills - Singanallur
522,113,4,Singanallur
523,113,5,Varatharajapuram
524,113,6,ESI - Singanallur
525,113,7,LIONs - Singanallur
526,113,8,Ramanuja Nagar
527,113,9,Manis Theatre
528,113,10,Hope College
529,113,11,Varatharaja Mills
530,113,12,PSG Krishnammal
531,113,13,PSG Tech - Peelamedu
532,113,14,Suguna Kalyana Mandapam
533,113,15,Nava India - Avinashi rd
534,113,16,Lakshmi Mills Junction
535,113,17,Mani School/GKNM Hospl
536,113,18,Womens Polytechnic
537,113,19,Gandhipuram
538,113,20,100 feet/GP
539,113,21,Omni bus stand
540,113,22,Lakshmi puram - Sathy rd
541,113,23,Textool - Sathy rd
542,113,24,Ganapathy
543,113,25,CMS - Ganapathy
544,113,26,Athipalayam Pirivu - Sathy rd
545,113,27,Bharathi nagar - Sathy rd
546,113,28,Ramakrishna mill - Sathy rd
547,113,29,Sivanandha mill - Sathy rd
548,113,30,SRP mill - Sathy rd
549,113,31,Amman kovil - Saravanampatti
550,113,32,Kalappatti Pirivu - Sathy rd
551,113,33,Saravanampatti
552,113,34,Visuwasapuram/Sahara City



553,11A,1,Ukkadam
554,11A,2,BigBazaar
555,11A,3,Town Hall
556,11A,4,Government Hospital
557,11A,5,Railway Station
558,11A,6,Collectorate/DSP
559,11A,7,Uppilipalayam - Avinashi rd
560,11A,8,VOC Park
561,11A,9,Park Gate - Nanjappa rd
562,11A,10,Alankar - Nanjappa rd
563,11A,11,Gandhipuram
564,11A,12,100 feet/GP
565,11A,13,Kalyan - 100ft rd
566,11A,14,Karpagam Complex - 100ft
567,11A,15,Power House
568,11A,16,TVS - MTP rd
569,11A,17,Muthu theatre - MTP rd
570,11A,18,Murugan mills - MTP rd
571,11A,19,Saibaba Kovil
572,11A,20,Puliamaram stop - NSR rd
573,11A,21,Saibaba Colony
574,11A,22,Venkittapuram
575,11A,23,Velandipalayam
576,11A,24,Kovilmedu
577,11A,25,Sivaji Colony - Thadagam rd
578,11A,26,Edayarpalayam - Thadagam rd
579,11A,27,TVS Nagar - Thadagam rd
580,11A,28,KNG Pudur
581,11A,29,Kanuvai
582,11A,30,Somayanur - Thadagam rd
583,11A,31,Chinna Thadagam
584,11A,32,Thadagam/Anuvavi temple



585,11B,1,Railway Station
586,11B,2,Government Hospital
587,11B,3,Town Hall
588,11B,4,Sukravarpettai
589,11B,5,Marakkadai
590,11B,6,Flower Market
591,11B,7,North Coimbatore/Vadakovai
592,11B,8,TVS - MTP rd
593,11B,9,Muthu theatre - MTP rd
594,11B,10,Murugan mills - MTP rd
595,11B,11,Saibaba Kovil
596,11B,12,Puliamaram stop - NSR rd
597,11B,13,Saibaba Colony
598,11B,14,Venkittapuram
599,11B,15,Velandipalayam
600,11B,16,Kovilmedu
601,11B,17,Sivaji Colony - Thadagam rd
602,11B,18,Edayarpalayam - Thadagam rd
603,11B,19,TVS Nagar - Thadagam rd
604,11B,20,KNG Pudur pirivu
605,11B,21,Kanuvai
606,11B,22,Somayanur - Thadagam rd
607,11B,23,Chinna Thadagam
608,11B,24,Veerapandi Pudur





609,11C,1,Railway Station
610,11C,2,Government Hospital
611,11C,3,Town Hall
612,11C,4,Sukravarpettai
613,11C,5,Marakkadai
614,11C,6,Flower Market
615,11C,7,North Coimbatore/Vadakovai
616,11C,8,TVS - MTP rd
617,11C,9,Muthu theatre - MTP rd
618,11C,10,Murugan mills - MTP rd
619,11C,11,Saibaba Kovil
620,11C,12,Puliamaram stop - NSR rd
621,11C,13,Saibaba Colony
622,11C,14,Venkittapuram
623,11C,15,Velandipalayam
624,11C,16,Kovilmedu
625,11C,17,Sivaji Colony - Thadagam rd
626,11C,18,Edayarpalayam - Thadagam rd
627,11C,19,TVS Nagar - Thadagam rd
628,11C,20,KNG Pudur pirivu
629,11C,21,Kanuvai
630,11C,22,Somayanur - Thadagam rd
631,11C,23,Chinna Thadagam


632,11D,1,Railway Station
633,11D,2,Government Hospital
634,11D,3,Town Hall
635,11D,4,Sukravarpettai
636,11D,5,Marakkadai
637,11D,6,Flower Market
638,11D,7,North Coimbatore/Vadakovai
639,11D,8,TVS - MTP rd
640,11D,9,Muthu theatre - MTP rd
641,11D,10,Murugan mills - MTP rd
642,11D,11,Saibaba Kovil
643,11D,12,Puliamaram stop - NSR rd
644,11D,13,Saibaba Colony
645,11D,14,Venkittapuram
646,11D,15,Velandipalayam
647,11D,16,Kovilmedu
648,11D,17,Sivaji Colony - Thadagam rd
649,11D,18,Edayarpalayam - Thadagam rd
650,11D,19,TVS Nagar - Thadagam rd
651,11D,20,KNG Pudur pirivu
652,11D,21,Kanuvai
653,11D,22,Somayanur - Thadagam rd



654,11E,1,Railway Station
655,11E,2,Government Hospital
656,11E,3,Town Hall
657,11E,4,Sukravarpettai
658,11E,5,Marakkadai
659,11E,6,Flower Market
660,11E,7,North Coimbatore/Vadakovai
661,11E,8,TVS - MTP rd
662,11E,9,Muthu theatre - MTP rd
663,11E,10,Murugan mills - MTP rd
664,11E,11,Saibaba Kovil
665,11E,12,Puliamaram stop - NSR rd
666,11E,13,Saibaba Colony
667,11E,14,Venkittapuram
668,11E,15,Velandipalayam
669,11E,16,Kovilmedu
670,11E,17,Sivaji Colony - Thadagam rd
671,11E,18,Edayarpalayam - Thadagam rd
672,11E,19,TVS Nagar - Thadagam rd
673,11E,20,KNG Pudur pirivu
674,11E,21,Kanuvai
675,11E,22,Somayanur - Thadagam rd







676,11F,1,Railway Station
677,11F,2,Government Hospital
678,11F,3,Town Hall
679,11F,4,Marakkadai
680,11F,5,Sukravarpettai
681,11F,6,Flower Market
682,11F,7,North Coimbatore/Vadakovai
683,11F,8,TVS - MTP rd
684,11F,9,Muthu theatre - MTP rd
685,11F,10,Murugan mills - MTP rd
686,11F,11,Saibaba Kovil
687,11F,12,Puliamaram stop - NSR rd
688,11F,13,Saibaba Colony
689,11F,14,Venkittapuram
690,11F,15,Velandipalayam
691,11F,16,Kovilmedu
692,11F,17,Sivaji Colony - Thadagam rd
693,11F,18,Edayarpalayam - Thadagam rd
694,11F,19,TVS Nagar - Thadagam rd
695,11F,20,KNG Pudur pirivu
696,11F,21,KNG Pudur
697,11F,22,GN mills - MTP rd
698,11F,23,ITI - MTP rd
699,11F,24,Cheran Nagar - MTP rd
700,11F,25,Kavundampalayam
701,11F,26,Housing unit - Kovundampalayam
702,11F,27,Eru Company - MTP rd
703,11F,28,Sivanandha Colony
704,11F,29,Power House
705,11F,30,Karpagam Complex - 100ft
706,11F,31,Kalyan - 100ft rd
707,11F,32,100 feet/GP
708,11F,33,Gandhipuram
709,11F,34,Alankar - Nanjappa rd
710,11F,35,Park Gate - Nanjappa rd
711,11F,36,VOC Park
712,11F,37,Uppilipalayam - Avinashi rd
713,11F,38,Collectorate/DSP


sno,route_id,stop_id,stop_name
714,11H,1,Railway Station
715,11H,2,Collectorate/DSP
716,11H,3,Uppilipalayam - Avinashi rd
717,11H,4,VOC Park
718,11H,5,Park Gate - Nanjappa rd
719,11H,6,Alankar - Nanjappa rd
720,11H,7,Gandhipuram
721,11H,8,100 feet/GP
722,11H,9,Kalyan - 100ft rd
723,11H,10,Karpagam Complex - 100ft
724,11H,11,Power House
725,11H,12,Sivanandha Colony
726,11H,13,Saibaba Kovil
727,11H,14,Eru Company - MTP rd
728,11H,15,Housing unit - Kovundampalayam
729,11H,16,Kavundampalayam
730,11H,17,Cheran Nagar - MTP rd
731,11H,18,ITI - MTP rd
732,11H,19,GN mills - MTP rd
733,11H,20,KNG Pudur
734,11H,21,KNG Pudur pirivu
735,11H,22,TVS Nagar - Thadagam rd
736,11H,23,Edayarpalayam - Thadagam rd
737,11H,24,Sivaji Colony - Thadagam rd
738,11H,25,Kovilmedu
739,11H,26,Velandipalayam
740,11H,27,Venkittapuram
741,11H,28,Saibaba Colony
742,11H,29,Puliamaram stop - NSR rd
743,11H,30,Murugan mills - MTP rd
744,11H,31,Muthu theatre - MTP rd
745,11H,32,TVS - MTP rd
746,11H,33,North Coimbatore/Vadakovai
747,11H,34,Flower Market
748,11H,35,Marakkadai
749,11H,36,Town Hall
750,11H,37,Government Hospital



751,11K,1,Railway Station
752,11K,2,Government Hospital
753,11K,3,Town Hall
754,11K,4,Sukravarpettai
755,11K,5,Marakkadai
756,11K,6,Flower Market
757,11K,7,North Coimbatore/Vadakovai
758,11K,8,TVS - MTP rd
759,11K,9,Muthu theatre - MTP rd
760,11K,10,Murugan mills - MTP rd
761,11K,11,Saibaba Kovil
762,11K,12,Puliamaram stop - NSR rd
763,11K,13,Saibaba Colony
764,11K,14,Venkittapuram
765,11K,15,Velandipalayam
766,11K,16,Kovilmedu
767,11K,17,Sivaji Colony - Thadagam rd
768,11K,18,Edayarpalayam - Thadagam rd
769,11K,19,TVS Nagar - Thadagam rd
770,11K,20,KNG Pudur pirivu
771,11K,21,Kanuvai
772,11K,22,Somayanur - Thadagam rd
773,11K,23,Chinna Thadagam
774,11K,24,Thadagam/Anuvavi temple




775,12,1,Gandhipuram
776,12,2,Alankar - Nanjappa rd
777,12,3,Park Gate - Nanjappa rd
778,12,4,VOC Park
779,12,5,Uppilipalayam - Avinashi rd
780,12,6,Collectorate/DSP
781,12,7,Railway Station
782,12,8,Government Hospital
783,12,9,Town Hall
784,12,10,BigBazaar
785,12,11,Ukkadam
786,12,12,Karumbukkadai - Ukkadam
787,12,13,Aathupalam/L&T tollbooth
788,12,14,Kurichi
789,12,15,Sundharapuram
790,12,16,SIDCO - Pollachi rd
791,12,17,Eachanari Rly gate
792,12,18,Rathinam Institutions
793,12,19,Eachanari
794,12,20,Karpagam University
795,12,21,Malumichampatti
796,12,22,Othakalmandapam


797,12A,1,Gandhipuram
798,12A,2,Alankar - Nanjappa rd
799,12A,3,Park Gate - Nanjappa rd
800,12A,4,VOC Park
801,12A,5,Uppilipalayam - Avinashi rd
802,12A,6,Collectorate/DSP
803,12A,7,Railway Station
804,12A,8,Government Hospital
805,12A,9,Town Hall
806,12A,10,BigBazaar
807,12A,11,Ukkadam
808,12A,12,Karumbukkadai - Ukkadam
809,12A,13,Aathupalam/L&T tollbooth
810,12A,14,Kurichi
811,12A,15,Sundharapuram
812,12A,16,SIDCO - Pollachi rd
813,12A,17,Eachanari Rly gate
814,12A,18,Rathinam Institutions
815,12A,19,Eachanari
816,12A,20,Karpagam University
817,12A,21,Malumichampatti
818,12A,22,Othakalmandapam
819,12A,23,Arasipalayam



824,12D,1,Gandhipuram
825,12D,2,Alankar - Nanjappa rd
826,12D,3,Park Gate - Nanjappa rd
827,12D,4,VOC Park
828,12D,5,Uppilipalayam - Avinashi rd
829,12D,6,Collectorate/DSP
830,12D,7,Railway Station
831,12D,8,Government Hospital
832,12D,9,Town Hall
833,12D,10,BigBazaar
834,12D,11,Ukkadam
835,12D,12,Karumbukkadai - Ukkadam
836,12D,13,Aathupalam/L&T tollbooth
837,12D,14,Kurichi
838,12D,15,Sundharapuram
839,12D,16,SIDCO - Pollachi rd
840,12D,17,Eachanari Rly gate
841,12D,18,Rathinam Institutions
842,12D,19,Eachanari
843,12D,20,Karpagam University
844,12D,21,Malumichampatti
845,12D,22,Othakalmandapam
846,12D,23,Arasipalayam




877,12E,1,Town Hall
878,12E,2,BigBazaar
879,12E,3,Ukkadam
880,12E,4,Karumbukkadai - Ukkadam
881,12E,5,Aathupalam/L&T tollbooth
882,12E,6,Kurichi
883,12E,7,Sundharapuram
884,12E,8,SIDCO - Pollachi rd
885,12E,9,Eachanari Rly gate
886,12E,10,Rathinam Institutions
887,12E,11,Eachanari
888,12E,12,Karpagam University
889,12E,13,Malumichampatti
890,12E,14,Othakalmandapam
891,12E,15,Arasipalayam
892,12E,16,Velanthavalam




942,12H,1,Gandhi Managar
943,12H,2,Bharathi nagar - Sathy rd
944,12H,3,Athipalayam Pirivu - Sathy rd
945,12H,4,CMS - Ganapathy
946,12H,5,Ganapathy
947,12H,6,Textool - Sathy rd
948,12H,7,Lakshmi puram - Sathy rd
949,12H,8,Omni bus stand
950,12H,9,100 feet/GP
951,12H,10,Gandhipuram
952,12H,11,Alankar - Nanjappa rd
953,12H,12,Park Gate - Nanjappa rd
954,12H,13,VOC Park
955,12H,14,Uppilipalayam - Avinashi rd
956,12H,15,Marakkadai
957,12H,16,RMS Office
958,12H,17,Town Hall
959,12H,18,BigBazaar
960,12H,19,Ukkadam
961,12H,20,Karumbukkadai - Ukkadam
962,12H,21,Aathupalam/L&T tollbooth
963,12H,22,Kurichi
964,12H,23,Sundharapuram
965,12H,24,Housing Unit - Kurichi
966,12H,25,Madukkarai




967,13A,1,Ukkadam
968,13A,2,BigBazaar
969,13A,3,Town Hall
970,13A,4,Government Hospital
971,13A,5,Rainbow - Trichy rd
972,13A,6,Sreepathi/Kannan
973,13A,7,Sungam
974,13A,8,Olympus - Ramanathapuram
975,13A,9,Ramanathapuram
976,13A,10,Sowripalayam Pirivu
977,13A,11,Iyer Hospital - Trichy rd
978,13A,12,Central studio - SInganallur
979,13A,13,Rajalakshmi mills/PERKS
980,13A,14,Boat House - Singanallur
981,13A,15,Housing Unit - Singanallur
982,13A,16,Singanallur
983,13A,17,Varatharajapuram
984,13A,18,ESI - Singanallur
985,13A,19,LIONs - Singanallur
986,13A,20,Ramanuja Nagar
987,13A,21,Mani School/GKNM Hospl
988,13A,22,Hope College
989,13A,23,CMC - Avinashi rd
990,13A,24,CIT - CODISSIA
991,13A,25,Polytechnic - Avinashi rd
992,13A,26,PSG Arts
993,13A,27,SITRA/Airport
994,13A,28,KMCH - Avinashi rd
995,13A,29,Goldwins
996,13A,30,Thottipalayam Pirivu
997,13A,31,Rangasamy Goundan pudur
998,13A,32,Chinniyampalayam



999,13B,33,Singanallur
1000,13B,15,Housing Unit - Singanallur
1001,13B,14,Boat House - Singanallur
1002,13B,13,Rajalakshmi mills/PERKS
1003,13B,12,Central studio - SInganallur
1004,13B,11,Iyer Hospital - Trichy rd
1005,13B,10,Sowripalayam Pirivu
1006,13B,9,Ramanathapuram
1007,13B,8,Olympus - Ramanathapuram
1008,13B,7,Sungam
1009,13B,6,Sreepathi/Kannan
1010,13B,5,Rainbow - Trichy rd
1011,13B,4,Government Hospital
1012,13B,3,Town Hall
1013,13B,34,Sukravarpettai
1014,13B,35,Marakkadai
1015,13B,36,Flower Market
1016,13B,37,North Coimbatore/Vadakovai
1017,13B,16,TVS Nagar - Thadagam rd
1018,13B,2,Muthu theatre - MTP rd
1019,13B,1,Murugan mills - MTP rd
1020,13B,38,Saibaba Kovil



1021,13C,33,Ukkadam
1022,13C,15,BigBazaar
1023,13C,3,Town Hall
1024,13C,34,Sukravarpettai
1025,13C,35,Marakkadai
1026,13C,36,Gandhi Park
1027,13C,37,Pal Company(Aavin)
1028,13C,38,Lawley Road
1029,13C,39,GCT - Thadagam rd
1030,13C,16,Venkittapuram
1031,13C,17,Velandipalayam
1032,13C,18,Kovilmedu
1033,13C,19,Sivaji Colony - Thadagam rd
1034,13C,20,Edayarpalayam - Thadagam rd
1035,13C,21,TVS Nagar - Thadagam rd
1036,13C,22,KNG Pudur pirivu
1037,13C,23,KNG Pudur
1038,13C,24,GN mills - MTP rd
1039,13C,25,Vellakinar Pirivu - MTP rd
1040,13C,26,Thudiyalur
1041,13C,27,Cheran Colony


1042,14,1,Gandhipuram
1043,14,2,Alankar - Nanjappa rd
1044,14,3,Park Gate - Nanjappa rd
1045,14,4,VOC Park
1046,14,5,Uppilipalayam - Avinashi rd
1047,14,6,Collectorate/DSP
1048,14,7,Railway Station
1049,14,8,Government Hospital
1050,14,9,Town Hall
1051,14,10,Karuppagoundan st
1052,14,11,Chetti veedhi - Perur rd
1053,14,12,Shivalaya - Perur rd
1054,14,13,Muthusamy Colony - Selvapuram
1055,14,14,LIC Colony - Selvapuram
1056,14,15,Telungupalayam Pirivu - Perur
1057,14,16,Aathupalam - Perur rd
1058,14,17,Tamil kalloori - Perur
1059,14,18,Perur
1060,14,19,Kovai Kondattam
1061,14,20,Mathampatti
1062,14,21,Aalandhurai



1063,140,1,Singanallur
1064,140,2,Varatharajapuram
1065,140,3,ESI - Singanallur
1066,140,4,LIONs - Singanallur
1067,140,5,Ramanuja Nagar
1068,140,6,Manis Theatre
1069,140,7,Hope College
1070,140,8,Varatharaja Mills
1071,140,9,PSG Krishnammal
1072,140,10,PSG Tech - Peelamedu
1073,140,11,Suguna Kalyana Mandapam
1074,140,12,Nava India - Avinashi rd
1075,140,13,Lakshmi Mills Junction
1076,140,14,Mani School/GKNM Hospl
1077,140,15,Womens Polytechnic
1078,140,16,Gandhipuram

1079,14A,1,Gandhipuram
1080,14A,2,Alankar - Nanjappa rd
1081,14A,3,Park Gate - Nanjappa rd
1082,14A,4,VOC Park
1083,14A,5,Uppilipalayam - Avinashi rd
1084,14A,6,Collectorate/DSP
1085,14A,7,Railway Station
1086,14A,8,Government Hospital
1087,14A,9,Town Hall
1088,14A,10,Karuppagoundan st
1089,14A,11,Chetti veedhi - Perur rd
1090,14A,12,Shivalaya - Perur rd
1091,14A,13,Muthusamy Colony - Selvapuram
1092,14A,14,LIC Colony - Selvapuram
1093,14A,15,Telungupalayam Pirivu - Perur
1094,14A,16,Aathupalam - Perur rd
1095,14A,17,Tamil kalloori - Perur
1096,14A,18,Perur
1097,14A,19,Kovai Kondattam
1098,14A,20,Mathampatti
1099,14A,21,Aalandhurai
1100,14A,22,Iruttupallam - Siruvani rd


1011,14B,1,Railway Station
1012,14B,2,Government Hospital
1013,14B,3,Town Hall
1014,14B,4,Karuppagoundan st
1015,14B,5,Chetti veedhi - Perur rd
1016,14B,6,Shivalaya - Perur rd
1017,14B,7,Muthusamy Colony - Selvapuram
1018,14B,8,LIC Colony - Selvapuram
1019,14B,9,Telungupalayam Pirivu - Perur
1020,14B,10,Aathupalam - Perur rd
1021,14B,11,Tamil kalloori - Perur
1022,14B,12,Perur
1023,14B,13,Kovai Kondattam
1024,14B,14,Mathampatti
1025,14B,15,Aalandhurai
1026,14B,16,Iruttupallam - Siruvani rd


1027,14C,1,Gandhipuram
1028,14C,2,Alankar - Nanjappa rd
1029,14C,3,Park Gate - Nanjappa rd
1030,14C,4,VOC Park
1031,14C,5,Uppilipalayam - Avinashi rd
1032,14C,6,Collectorate/DSP
1033,14C,7,Railway Station
1034,14C,8,Government Hospital
1035,14C,9,Town Hall
1036,14C,10,Karuppagoundan st
1037,14C,11,Chetti veedhi - Perur rd
1038,14C,12,Shivalaya - Perur rd
1039,14C,13,Muthusamy Colony - Selvapuram
1040,14C,14,LIC Colony - Selvapuram
1041,14C,15,Telungupalayam Pirivu - Perur
1042,14C,16,Aathupalam - Perur rd
1043,14C,17,Tamil kalloori - Perur
1044,14C,18,Perur
1045,14C,19,Kovai Kondattam
1046,14C,20,Mathampatti
1047,14C,21,Aalandhurai




1048,14D,1,Gandhipuram
1049,14D,2,Alankar - Nanjappa rd
1050,14D,3,Park Gate - Nanjappa rd
1051,14D,4,VOC Park
1052,14D,5,Uppilipalayam - Avinashi rd
1053,14D,6,Collectorate/DSP
1054,14D,7,Railway Station
1055,14D,8,Government Hospital
1056,14D,9,Town Hall
1057,14D,10,Karuppagoundan st
1058,14D,11,Chetti veedhi - Perur rd
1059,14D,12,Shivalaya - Perur rd
1060,14D,13,Muthusamy Colony - Selvapuram
1061,14D,14,LIC Colony - Selvapuram
1062,14D,15,Telungupalayam Pirivu - Perur
1063,14D,16,Aathupalam - Perur rd
1064,14D,17,Tamil kalloori - Perur
1065,14D,18,Perur
1066,14D,19,Kovai Kondattam
1067,14D,20,Mathampatti
1068,14D,21,Aalandhurai
1069,14D,22,Iruttupallam - Siruvani rd
1070,14D,23,ISHA YOGA centre


1071,14E,1,Gandhipuram
1072,14E,2,Alankar - Nanjappa rd
1073,14E,3,Park Gate - Nanjappa rd
1074,14E,4,VOC Park
1075,14E,5,Uppilipalayam - Avinashi rd
1076,14E,6,Collectorate/DSP
1077,14E,7,Railway Station
1078,14E,8,Government Hospital
1079,14E,9,Town Hall
1080,14E,10,Karuppagoundan st
1081,14E,11,Chetti veedhi - Perur rd
1082,14E,12,Shivalaya - Perur rd
1083,14E,13,Muthusamy Colony - Selvapuram
1084,14E,14,LIC Colony - Selvapuram
1085,14E,15,Telungupalayam Pirivu - Perur
1086,14E,16,Aathupalam - Perur rd
1087,14E,17,Tamil kalloori - Perur
1088,14E,18,Perur
1089,14E,19,Kovai Kondattam
1090,14E,20,Mathampatti
1091,14E,21,Aalandhurai
1092,14E,22,Iruttupallam - Siruvani rd
1093,14E,23,Karunya University
1094,14E,24,Sadivayal - Siruvani rd



1095,15,1,Sivanandha mill - Sathy rd
1096,15,2,Ramakrishna mill - Sathy rd
1097,15,3,Bharathi nagar - Sathy rd
1098,15,4,Athipalayam Pirivu - Sathy rd
1099,15,5,CMS - Ganapathy
1100,15,6,Ganapathy
1101,15,7,Textool - Sathy rd
1102,15,8,Lakshmi puram - Sathy rd
1103,15,9,Omni bus stand
1104,15,10,100 feet/GP
1105,15,11,Gandhipuram
1106,15,12,Alankar - Nanjappa rd
1107,15,13,Park Gate - Nanjappa rd
1108,15,14,VOC Park
1109,15,15,Uppilipalayam - Avinashi rd
1110,15,16,Collectorate/DSP
1111,15,17,Railway Station
1112,15,18,Government Hospital
1113,15,19,Town Hall
1114,15,20,BigBazaar
1115,15,21,Ukkadam
1116,15,22,Karumbukkadai - Ukkadam
1117,15,23,Aathupalam/L&T tollbooth
1118,15,24,Kuniamuthur


1119,16,1,Kovilmedu
1120,16,2,Velandipalayam
1121,16,3,Venkittapuram
1122,16,4,Saibaba Colony
1123,16,5,Puliamaram stop - NSR rd
1124,16,6,Saibaba Kovil
1125,16,7,Murugan mills - MTP rd
1126,16,8,Muthu theatre - MTP rd
1127,16,9,TVS - MTP rd
1128,16,10,Power House
1129,16,11,Karpagam Complex - 100ft
1130,16,12,Kalyan - 100ft rd
1131,16,13,100 feet/GP
1132,16,14,Gandhipuram
1133,16,15,Womens Polytechnic
1134,16,16,Mani School/GKNM Hospl
1135,16,17,Lakshmi Mills Junction
1136,16,18,Nava India - Avinashi rd
1137,16,19,Suguna Kalyana Mandapam
1138,16,20,PSG Tech - Peelamedu
1139,16,21,PSG Krishnammal
1140,16,22,Varatharaja Mills
1141,16,23,Hope College
1142,16,24,CMC - Avinashi rd
1143,16,25,CIT - CODISSIA
1144,16,26,Polytechnic - Avinashi rd
1145,16,27,PSG Arts
1146,16,28,SITRA/Airport
1147,16,29,Mahendra - Nehru nagar
1148,16,30,Nehru nagar
1149,16,31,Sharp Industries
1150,16,32,N.G.P Institutes
1151,16,33,Kalappatti



1152,16A,1,Ukkadam
1153,16A,2,BigBazaar
1154,16A,3,Town Hall
1155,16A,4,Government Hospital
1156,16A,5,Railway Station
1157,16A,6,Collectorate/DSP
1158,16A,7,Uppilipalayam - Avinashi rd
1159,16A,8,VOC Park
1160,16A,9,Anna Statue - Avinashi rd
1161,16A,10,Residency
1162,16A,11,Lakshmi Mills Junction
1163,16A,12,Nava India - Avinashi rd
1164,16A,13,Suguna Kalyana Mandapam
1165,16A,14,PSG Tech - Peelamedu
1166,16A,15,PSG Krishnammal
1167,16A,16,Varatharaja Mills
1168,16A,17,Hope College
1169,16A,18,CMC - Avinashi rd
1170,16A,19,CIT - CODISSIA
1171,16A,20,Polytechnic - Avinashi rd
1172,16A,21,PSG Arts
1173,16A,22,SITRA/Airport


1174,16B,1,Saibaba Kovil
1175,16B,2,Murugan mills - MTP rd
1176,16B,3,Muthu theatre - MTP rd
1177,16B,4,TVS - MTP rd
1178,16B,5,North Coimbatore/Vadakovai
1179,16B,6,Flower Market
1180,16B,7,Sukravarpettai
1181,16B,8,Marakkadai
1182,16B,9,Town Hall
1183,16B,10,Government Hospital
1184,16B,11,Railway Station
1185,16B,12,Collectorate/DSP
1186,16B,13,Uppilipalayam - Avinashi rd
1187,16B,14,VOC Park
1188,16B,15,Anna Statue - Avinashi rd
1189,16B,16,Residency
1190,16B,17,Lakshmi Mills Junction
1191,16B,18,Nava India - Avinashi rd
1192,16B,19,Suguna Kalyana Mandapam
1193,16B,20,PSG Tech - Peelamedu
1194,16B,21,PSG Krishnammal
1195,16B,22,Varatharaja Mills
1196,16B,23,Hope College
1197,16B,24,CMC - Avinashi rd
1198,16B,25,CIT - CODISSIA
1199,16B,26,Polytechnic - Avinashi rd
1200,16B,27,PSG Arts
1201,16B,28,SITRA/Airport
1202,16B,29,Mahendra - Nehru nagar
1203,16B,30,Nehru nagar
1204,16B,31,Sharp Industries
1205,16B,32,N.G.P Institutes
1206,16B,33,Kalappatti



1207,16C,1,Telungupalayam - Selvapuram
1208,16C,2,Telungupalayam Pirivu - Perur
1209,16C,3,LIC Colony - Selvapuram
1210,16C,4,Muthusamy Colony - Selvapuram
1211,16C,5,Shivalaya - Perur rd
1212,16C,6,Chetti veedhi - Perur rd
1213,16C,7,Karuppagoundan st
1214,16C,8,Town Hall
1215,16C,9,Government Hospital
1216,16C,10,Railway Station
1217,16C,11,Collectorate/DSP
1218,16C,12,Uppilipalayam - Avinashi rd
1219,16C,13,VOC Park
1220,16C,14,Anna Statue - Avinashi rd
1221,16C,15,Residency
1222,16C,16,Lakshmi Mills Junction
1223,16C,17,Nava India - Avinashi rd
1224,16C,18,Suguna Kalyana Mandapam
1225,16C,19,PSG Tech - Peelamedu
1226,16C,20,PSG Krishnammal
1227,16C,21,Varatharaja Mills
1228,16C,22,Hope College
1229,16C,23,CMC - Avinashi rd
1230,16C,24,CIT - CODISSIA
1231,16C,25,Polytechnic - Avinashi rd
1232,16C,26,PSG Arts
1233,16C,27,SITRA/Airport
1234,16C,28,Mahendra - Nehru nagar
1235,16C,29,Nehru nagar
1236,16C,30,Sharp Industries
1237,16C,31,N.G.P Institutes
1238,16C,32,Kalappatti




1237,18,1,Lakshmi puram - Sathy rd
1238,18,2,Omni bus stand
1239,18,3,100 feet/GP
1240,18,4,Gandhipuram
1241,18,5,Alankar - Nanjappa rd
1242,18,6,Park Gate - Nanjappa rd
1243,18,7,VOC Park
1244,18,8,Uppilipalayam - Avinashi rd
1245,18,9,Collectorate/DSP
1246,18,10,Railway Station
1247,18,11,Government Hospital
1248,18,12,Town Hall
1249,18,13,BigBazaar
1250,18,14,Ukkadam
1251,18,15,Karumbukkadai - Ukkadam
1252,18,16,Aathupalam/L&T tollbooth
1253,18,17,Kurichi
1254,18,18,Sundharapuram
1255,18,19,SIDCO - Pollachi rd
1256,18,20,Eachanari Rly gate
1257,18,21,Rathinam Institutions
1258,18,22,Eachanari
1259,18,23,Karpagam University
1260,18,24,Malumichampatti
1261,18,25,Othakalmandapam
1262,18,26,Arasipalayam


1263,19,1,Ukkadam
1264,19,2,BigBazaar
1265,19,3,Town Hall
1266,19,4,Government Hospital
1267,19,5,Rainbow - Trichy rd
1268,19,6,Sreepathi/Kannan
1269,19,7,Sungam
1270,19,8,Olympus - Ramanathapuram
1271,19,9,Ramanathapuram
1272,19,10,Nanjundapuram



1273,19A,11,Saibaba Kovil
1274,19A,12,Murugan mills - MTP rd
1275,19A,13,Muthu theatre - MTP rd
1276,19A,14,North Coimbatore/Vadakovai
1277,19A,15,Flower Market
1278,19A,16,Marakkadai
1279,19A,17,Sukravarpettai
1280,19A,18,Town Hall
1281,19A,19,Government Hospital
1282,19A,20,Rainbow - Trichy rd
1283,19A,21,Sreepathi/Kannan
1284,19A,22,Sungam
1285,19A,23,Olympus - Ramanathapuram
1286,19A,24,Ramanathapuram
1287,19A,25,Nanjundapuram
1288,19A,26,Podhanur
1289,19A,27,Vellalur



1290,19B,1,Ukkadam
1291,19B,2,BigBazaar
1292,19B,3,Town Hall
1293,19B,4,Government Hospital
1294,19B,5,Rainbow - Trichy rd
1295,19B,6,Sreepathi/Kannan
1296,19B,7,Sungam
1297,19B,8,Olympus - Ramanathapuram
1298,19B,9,Ramanathapuram
1299,19B,10,Sowripalayam Pirivu
1300,19B,11,Iyer Hospital - Trichy rd
1301,19B,12,Central studio - SInganallur
1302,19B,13,Rajalakshmi mills/PERKS
1303,19B,14,Boat House - Singanallur
1304,19B,15,Housing Unit - Singanallur
1305,19B,16,Singanallur
1306,19B,17,Vasantha mills - Singanallur
1307,19B,18,Jai Shanthi - Singanallur
1308,19B,19,Ondipudur
1309,19B,20,Irugur Pirivu
1310,19B,21,Sinthamanipudur
1311,19B,22,Pappampatti Pirivu
1312,19B,23,Ravathur Pirivu
1313,19B,24,Kumaran Kottam - Trichy road
1314,19B,25,Ranganathapuram - Sulur
1315,19B,26,Sulur
1316,19B,27,RVS - Sulur
1317,19B,28,Kangeyampalayam
1318,19B,29,Sulur Aero




1319,19C,1,Gandhipuram
1320,19C,2,Womens Polytechnic
1321,19C,3,Mani School/GKNM Hospl
1322,19C,4,Lakshmi Mills Junction
1323,19C,5,Nava India - Avinashi rd
1324,19C,6,Suguna Kalyana Mandapam
1325,19C,7,PSG Tech - Peelamedu
1326,19C,8,PSG Krishnammal
1327,19C,9,Varatharaja Mills
1328,19C,10,Hope College
1329,19C,11,Manis Theatre
1330,19C,12,Ramanuja Nagar
1331,19C,13,LIONs - Singanallur
1332,19C,14,ESI - Singanallur
1333,19C,15,Varatharajapuram
1334,19C,16,Singanallur
1335,19C,17,Vasantha mills - Singanallur
1336,19C,18,Jai Shanthi - Singanallur
1337,19C,19,Ondipudur
1338,19C,20,Irugur Pirivu
1339,19C,21,Sinthamanipudur
1340,19C,22,Pappampatti Pirivu
1341,19C,23,Ravathur Pirivu
1342,19C,24,Kumaran Kottam - Trichy road
1343,19C,25,Ranganathapuram - Sulur
1344,19C,26,Sulur
1345,19C,27,RVS - Sulur
1346,19C,28,Kangeyampalayam
1347,19C,29,Sulur Aero



1348,19D,1,Gandhipuram
1349,19D,2,Womens Polytechnic
1350,19D,3,Mani School/GKNM Hospl
1351,19D,4,Lakshmi Mills Junction
1352,19D,5,Nava India - Avinashi rd
1353,19D,6,Suguna Kalyana Mandapam
1354,19D,7,PSG Tech - Peelamedu
1355,19D,8,PSG Krishnammal
1356,19D,9,Varatharaja Mills
1357,19D,10,Hope College
1358,19D,11,Manis Theatre
1359,19D,12,Ramanuja Nagar
1360,19D,13,LIONs - Singanallur
1361,19D,14,ESI - Singanallur
1362,19D,15,Varatharajapuram
1363,19D,16,Singanallur
1364,19D,17,Vasantha mills - Singanallur
1365,19D,18,Jai Shanthi - Singanallur
1366,19D,19,Ondipudur
1367,19D,20,Irugur Pirivu
1368,19D,21,Sinthamanipudur
1369,19D,22,Pappampatti Pirivu
1370,19D,23,Ravathur Pirivu
1371,19D,24,Kumaran Kottam - Trichy road
1372,19D,25,Ranganathapuram - Sulur
1373,19D,26,Sulur
1374,19D,27,Kalangal - Sulur
1375,19D,28,Appanaickenpatti




1376,19D,1,Ukkadam
1377,19D,2,BigBazaar
1378,19D,3,Town Hall
1379,19D,4,Government Hospital
1380,19D,5,Rainbow - Trichy rd
1381,19D,6,Sreepathi/Kannan
1382,19D,7,Sungam
1383,19D,8,Olympus - Ramanathapuram
1384,19D,9,Ramanathapuram
1385,19D,10,Sowripalayam Pirivu
1386,19D,11,Iyer Hospital - Trichy rd
1387,19D,12,Central studio - SInganallur
1388,19D,13,Rajalakshmi mills/PERKS
1389,19D,14,Boat House - Singanallur
1390,19D,15,Housing Unit - Singanallur
1391,19D,16,Singanallur
1392,19D,17,Vasantha mills - Singanallur
1393,19D,18,Jai Shanthi - Singanallur
1394,19D,19,Ondipudur
1395,19D,20,Irugur Pirivu
1396,19D,21,Sinthamanipudur
1397,19D,22,Pappampatti Pirivu
1398,19D,23,Ravathur Pirivu
1399,19D,24,Kumaran Kottam - Trichy road
1400,19D,25,Ranganathapuram - Sulur
1401,19D,26,Sulur
1402,19D,27,Kalangal - Sulur
1403,19D,28,Appanaickenpatti

1404,1B,1,Ondipudur
1405,1B,2,Jai Shanthi - Singanallur
1406,1B,3,Vasantha mills - Singanallur
1407,1B,4,Singanallur
1408,1B,5,Housing Unit - Singanallur
1409,1B,6,Boat House - Singanallur
1410,1B,7,Rajalakshmi mills/PERKS
1411,1B,8,Central studio - SInganallur
1412,1B,9,Iyer Hospital - Trichy rd
1413,1B,10,Sowripalayam Pirivu
1414,1B,11,Ramanathapuram
1415,1B,12,Olympus - Ramanathapuram
1416,1B,13,Sungam
1417,1B,14,Sreepathi/Kannan
1418,1B,15,Rainbow - Trichy rd
1419,1B,16,Government Hospital
1420,1B,17,Railway Station
1421,1B,18,Collectorate/DSP
1422,1B,19,VOC Park
1423,1B,20,Park Gate - Nanjappa rd
1424,1B,21,Alankar - Nanjappa rd
1425,1B,22,Gandhipuram
1426,1B,23,100 feet/GP
1427,1B,24,Kalyan - 100ft rd
1428,1B,25,Karpagam Complex - 100ft
1429,1B,26,Power House
1430,1B,27,North Coimbatore/Vadakovai
1431,1B,28,Savitha Hall - R.S.Puram
1432,1B,29,Lawley Road
1433,1B,30,Agricultural University
1434,1B,31,PN pudur - Vadavalli
1435,1B,32,Mullai Nagar - Vadavalli
1436,1B,33,Vadavalli
1437,1B,34,Aalamaram - Vadavalli
1438,1B,35,Navavoor Pirivu
1439,1B,36,Kalveerampalayam
1440,1B,37,Bharathiyar University
1441,1B,38,IOB Colony - Maruthamalai
1442,1B,39,Law College
1443,1B,40,Maruthamalai



1444,1C,1,Ondipudur
1445,1C,2,Jai Shanthi - Singanallur
1446,1C,3,Vasantha mills - Singanallur
1447,1C,4,Singanallur
1448,1C,5,Housing Unit - Singanallur
1449,1C,6,Boat House - Singanallur
1450,1C,7,Rajalakshmi mills/PERKS
1451,1C,8,Central studio - SInganallur
1452,1C,9,Iyer Hospital - Trichy rd
1453,1C,10,Sowripalayam Pirivu
1454,1C,11,Ramanathapuram
1455,1C,12,Olympus - Ramanathapuram
1456,1C,13,Sungam
1457,1C,14,Sreepathi/Kannan
1458,1C,15,Rainbow - Trichy rd
1459,1C,16,Government Hospital
1460,1C,17,Railway Station
1461,1C,18,Collectorate/DSP
1462,1C,19,Uppilipalayam - Avinashi rd
1463,1C,20,Sukravarpettai
1464,1C,21,Gandhi Park
1465,1C,22,Pal Company(Aavin)
1466,1C,23,Lawley Road
1467,1C,24,Agricultural University
1468,1C,25,PN pudur - Vadavalli
1469,1C,26,Mullai Nagar - Vadavalli
1470,1C,27,Vadavalli



1471,1D,1,Ondipudur
1472,1D,2,Jai Shanthi - Singanallur
1473,1D,3,Vasantha mills - Singanallur
1474,1D,4,Singanallur
1475,1D,5,Varatharajapuram
1476,1D,6,ESI - Singanallur
1477,1D,7,LIONs - Singanallur
1478,1D,8,Ramanuja Nagar
1479,1D,9,Manis Theatre
1480,1D,10,Hope College
1481,1D,11,Varatharaja Mills
1482,1D,12,PSG Krishnammal
1483,1D,13,PSG Tech - Peelamedu
1484,1D,14,Suguna Kalyana Mandapam
1485,1D,15,Nava India - Avinashi rd
1486,1D,16,Lakshmi Mills Junction
1487,1D,17,Mani School/GKNM Hospl
1488,1D,18,Womens Polytechnic
1489,1D,19,Gandhipuram
1490,1D,20,100 feet/GP
1491,1D,21,Kalyan - 100ft rd
1492,1D,22,Karpagam Complex - 100ft
1493,1D,23,Power House
1494,1D,24,North Coimbatore/Vadakovai
1495,1D,25,Savitha Hall - R.S.Puram
1496,1D,26,Post Office - R.S.Puram
1497,1D,27,Annapoorna - R.S.Puram
1498,1D,28,Kennedy - R.S.Puram
1499,1D,29,Gandhi Park
1500,1D,30,Pal Company(Aavin)
1501,1D,31,Lawley Road
1502,1D,32,Agricultural University
1503,1D,33,PN pudur - Vadavalli
1504,1D,34,Mullai Nagar - Vadavalli
1505,1D,35,Vadavalli
1506,1D,36,Aalamaram - Vadavalli
1507,1D,37,Navavoor Pirivu
1508,1D,38,Kalveerampalayam
1509,1D,39,Bharathiyar University
1510,1D,40,IOB Colony - Maruthamalai
1511,1D,41,Law College
1512,1D,42,Maruthamalai



1513,2,1,SITRA/Airport
1514,2,2,PSG Arts
1515,2,3,Polytechnic - Avinashi rd
1516,2,4,CIT - CODISSIA
1517,2,5,CMC - Avinashi rd
1518,2,6,Hope College
1519,2,7,Varatharaja Mills
1520,2,8,PSG Krishnammal
1521,2,9,PSG Tech - Peelamedu
1522,2,10,Suguna Kalyana Mandapam
1523,2,11,Nava India - Avinashi rd
1524,2,12,Lakshmi Mills Junction
1525,2,13,Residency
1526,2,14,Anna Statue - Avinashi rd
1527,2,15,VOC Park
1528,2,16,Uppilipalayam - Avinashi rd
1529,2,17,Collectorate/DSP
1530,2,18,Railway Station
1531,2,19,Government Hospital
1532,2,20,Town Hall
1533,2,21,Karuppagoundan st
1534,2,22,Chetti veedhi - Perur rd
1535,2,23,Shivalaya - Perur rd
1536,2,24,Muthusamy Colony - Selvapuram
1537,2,25,LIC Colony - Selvapuram
1538,2,26,Telungupalayam Pirivu - Perur
1539,2,27,Aathupalam - Perur rd
1540,2,28,Tamil kalloori - Perur
1541,2,29,Perur

1542,20,1,TVS Nagar - Thadagam rd
1543,20,2,Edayarpalayam - Thadagam rd
1544,20,3,Sivaji Colony - Thadagam rd
1545,20,4,Kovilmedu
1546,20,5,Velandipalayam
1547,20,6,Venkittapuram
1548,20,7,Saibaba Colony
1549,20,8,Puliamaram stop - NSR rd
1550,20,9,Saibaba Kovil
1551,20,10,Murugan mills - MTP rd
1552,20,11,Muthu theatre - MTP rd
1553,20,12,TVS - MTP rd
1554,20,13,Power House
1555,20,14,Karpagam Complex - 100ft
1556,20,15,Kalyan - 100ft rd
1557,20,16,100 feet/GP
1558,20,17,Gandhipuram
1559,20,18,Womens Polytechnic
1560,20,19,Mani School/GKNM Hospl
1561,20,20,Lakshmi Mills Junction
1562,20,21,Nava India - Avinashi rd
1563,20,22,Suguna Kalyana Mandapam
1564,20,23,PSG Tech - Peelamedu
1565,20,24,PSG Krishnammal
1566,20,25,Varatharaja Mills
1567,20,26,Hope College
1568,20,27,CMC - Avinashi rd
1569,20,28,CIT - CODISSIA
1570,20,29,Polytechnic - Avinashi rd
1571,20,30,PSG Arts
1572,20,31,SITRA/Airport




1573,20A,1,Gandhipuram
1574,20A,2,Womens Polytechnic
1575,20A,3,Mani School/GKNM Hospl
1576,20A,4,Lakshmi Mills Junction
1577,20A,5,Nava India - Avinashi rd
1578,20A,6,Suguna Kalyana Mandapam
1579,20A,7,PSG Tech - Peelamedu
1580,20A,8,PSG Krishnammal
1581,20A,9,Varatharaja Mills
1582,20A,10,Hope College
1583,20A,11,CMC - Avinashi rd
1584,20A,12,CIT - CODISSIA
1585,20A,13,Polytechnic - Avinashi rd
1586,20A,14,PSG Arts
1587,20A,15,SITRA/Airport
1588,20A,16,KMCH - Avinashi rd
1589,20A,17,Goldwins
1590,20A,18,Thottipalayam Pirivu
1591,20A,19,Rangasamy Goundan pudur
1592,20A,20,Chinniyampalayam
1593,20A,21,Neelambur
1594,20A,22,Arasur - Avinashi road
1595,20A,23,Kaniyur
1596,20A,24,Karumathampatti
1597,20A,25,Somanur



1623,20B,1,SIHS Colony
1624,20B,2,Jai Shanthi - Singanallur
1625,20B,3,Vasantha mills - Singanallur
1626,20B,4,Singanallur
1627,20B,5,Varatharajapuram
1628,20B,6,ESI - Singanallur
1629,20B,7,LIONs - Singanallur
1630,20B,8,Ramanuja Nagar
1631,20B,9,Manis Theatre
1632,20B,10,Hope College
1633,20B,11,Varatharaja Mills
1634,20B,12,PSG Krishnammal
1635,20B,13,PSG Tech - Peelamedu
1636,20B,14,Suguna Kalyana Mandapam
1637,20B,15,Nava India - Avinashi rd
1638,20B,16,Lakshmi Mills Junction
1639,20B,17,Mani School/GKNM Hospl
1640,20B,18,Womens Polytechnic
1641,20B,19,Gandhipuram
1642,20B,20,100 feet/GP
1643,20B,21,Kalyan - 100ft rd
1644,20B,22,Karpagam Complex - 100ft
1645,20B,23,Power House
1646,20B,24,Sivanandha Colony
1647,20B,25,Saibaba Kovil






1648,20D,1,Gandhipuram
1649,20D,2,Womens Polytechnic
1650,20D,3,Mani School/GKNM Hospl
1651,20D,4,Lakshmi Mills Junction
1652,20D,5,Nava India - Avinashi rd
1653,20D,6,Suguna Kalyana Mandapam
1654,20D,7,PSG Tech - Peelamedu
1655,20D,8,PSG Krishnammal
1656,20D,9,Hope College
1657,20D,10,CMC - Avinashi rd
1658,20D,11,CIT - CODISSIA
1659,20D,12,Polytechnic - Avinashi rd
1660,20D,13,PSG Arts
1661,20D,14,SITRA/Airport
1662,20D,15,KMCH - Avinashi rd
1663,20D,16,Goldwins
1664,20D,17,Thottipalayam Pirivu
1665,20D,18,Rangasamy Goundan pudur
1666,20D,19,Chinniyampalayam
1667,20D,20,Neelambur
1668,20D,21,Arasur - Avinashi road
1669,20D,22,Kaniyur


1670,20C,1,SIHS Colony
1671,20C,2,Jai Shanthi - Singanallur
1672,20C,3,Vasantha mills - Singanallur
1673,20C,4,Singanallur
1674,20C,5,Varatharajapuram
1675,20C,6,ESI - Singanallur
1676,20C,7,LIONs - Singanallur
1677,20C,8,Ramanuja Nagar
1678,20C,9,Manis Theatre
1679,20C,10,Hope College
1680,20C,11,Varatharaja Mills
1681,20C,12,PSG Krishnammal
1682,20C,13,PSG Tech - Peelamedu
1683,20C,14,Suguna Kalyana Mandapam
1684,20C,15,Nava India - Avinashi rd
1685,20C,16,Lakshmi Mills Junction
1686,20C,17,Mani School/GKNM Hospl
1687,20C,18,Womens Polytechnic
1688,20C,19,Gandhipuram
1689,20C,20,100 feet/GP
1690,20C,21,Kalyan - 100ft rd
1691,20C,22,Karpagam Complex - 100ft
1692,20C,23,Power House
1693,20C,24,Sivanandha Colony
1694,20C,25,Saibaba Kovil
1695,20C,26,Eru Company - MTP rd
1696,20C,27,Housing unit - Kovundampalayam
1697,20C,28,Kavundampalayam
1698,20C,29,Cheran Nagar - MTP rd
1699,20C,30,ITI - MTP rd
1700,20C,31,GN mills - MTP rd
1701,20C,32,Vellakinar Pirivu - MTP rd
1702,20C,33,Thudiyalur
1703,20C,34,Vadamadurai
1704,20C,35,NGGO Colony
1705,20C,36,Kumaran mill - MTP rd
1706,20C,37,Narasimmanaicken palayam
1707,20C,38,Poochiyur



1726,21,1,Gandhipuram
1727,21,2,Alankar - Nanjappa rd
1728,21,3,Park Gate - Nanjappa rd
1729,21,4,VOC Park
1730,21,5,Uppilipalayam - Avinashi rd
1731,21,6,Collectorate/DSP
1732,21,7,Railway Station
1733,21,8,Government Hospital
1734,21,9,Town Hall
1735,21,10,Sukravarpettai
1736,21,11,Marakkadai
1737,21,12,Gandhi Park
1738,21,13,Veera Keralam
1739,21,14,Vedapatti
1740,21,15,Onapalayam - Thondamuthur rd
1741,21,16,Dhaliyur


1742,21A,1,Gandhipuram
1743,21A,2,Alankar - Nanjappa rd
1744,21A,3,Park Gate - Nanjappa rd
1745,21A,4,VOC Park
1746,21A,5,Uppilipalayam - Avinashi rd
1747,21A,6,Collectorate/DSP
1748,21A,7,Railway Station
1749,21A,8,Government Hospital
1750,21A,9,Town Hall
1751,21A,10,Sukravarpettai
1752,21A,11,Marakkadai
1753,21A,12,Gandhi Park
1754,21A,13,Veera Keralam
1755,21A,14,Vedapatti
1756,21A,15,Onapalayam - Thondamuthur rd
1757,21A,16,Kulathupalayam
1758,21A,17,Thondamuthur
1759,21A,18,Devarayapuram
1760,21A,19,Narasipuram






1761,21B,1,Town Hall
1762,21B,2,Sukravarpettai
1763,21B,3,Marakkadai
1764,21B,4,Gandhi Park
1765,21B,5,Veera Keralam
1766,21B,6,Vedapatti
1767,21B,7,Onapalayam - Thondamuthur rd
1768,21B,8,Kulathupalayam
1769,21B,9,Thondamuthur
1770,21B,10,Devarayapuram

1771,21C,1,Gandhipuram
1772,21C,2,Alankar - Nanjappa rd
1773,21C,3,Park Gate - Nanjappa rd
1774,21C,4,VOC Park
1775,21C,5,Uppilipalayam - Avinashi rd
1776,21C,6,Collectorate/DSP
1777,21C,7,Railway Station
1778,21C,8,Government Hospital
1779,21C,9,Town Hall
1780,21C,10,Sukravarpettai
1781,21C,11,Marakkadai
1782,21C,12,Gandhi Park
1783,21C,13,Veera Keralam
1784,21C,14,Vedapatti
1785,21C,15,Onapalayam - Thondamuthur rd
1786,21C,16,Kulathupalayam
1787,21C,17,Thondamuthur
1788,21C,18,Devarayapuram


1789,22,1,Sowripalayam
1790,22,2,Udayampalayam - Sowripalayam
1791,22,3,Puliakulam
1792,22,4,Sungam
1793,22,5,Sreepathi/Kannan
1794,22,6,Rainbow - Trichy rd
1795,22,7,Government Hospital
1796,22,8,Town Hall
1797,22,9,Sukravarpettai
1798,22,10,Marakkadai
1799,22,11,Gandhi Park
1800,22,12,Pal Company(Aavin)
1801,22,13,Lawley Road
1802,22,14,Agricultural University
1803,22,15,Veera Keralam


1804,22A,1,Chinniyampalayam
1805,22A,2,Rangasamy Goundan pudur
1806,22A,3,Thottipalayam Pirivu
1807,22A,4,Goldwins
1808,22A,5,KMCH - Avinashi rd
1809,22A,6,SITRA/Airport
1810,22A,7,PSG Arts
1811,22A,8,Polytechnic - Avinashi rd
1812,22A,9,CIT - CODISSIA
1813,22A,10,CMC - Avinashi rd
1814,22A,11,Hope College
1815,22A,12,Varatharaja Mills
1816,22A,13,PSG Krishnammal
1817,22A,14,PSG Tech - Peelamedu
1818,22A,15,Suguna Kalyana Mandapam
1819,22A,16,Nava India - Avinashi rd
1820,22A,17,Lakshmi Mills Junction
1821,22A,18,Mani School/GKNM Hospl
1822,22A,19,Womens Polytechnic
1823,22A,20,Gandhipuram
1824,22A,21,100 feet/GP
1825,22A,22,Kalyan - 100ft rd
1826,22A,23,Karpagam Complex - 100ft
1827,22A,24,Power House
1828,22A,25,TVS - MTP rd
1829,22A,26,Muthu theatre - MTP rd
1830,22A,27,Murugan mills - MTP rd
1831,22A,28,Saibaba Kovil
1832,22A,29,Puliamaram stop - NSR rd
1833,22A,30,Saibaba Colony
1834,22A,31,Venkittapuram
1835,22A,32,GCT - Thadagam rd
1836,22A,33,Lawley Road
1837,22A,34,Agricultural University
1838,22A,35,Veera Keralam




1839,23A,1,Podhanur
1840,23A,2,Sundharapuram
1841,23A,3,Kurichi
1842,23A,4,Aathupalam/L&T tollbooth
1843,23A,5,Karumbukkadai - Ukkadam
1844,23A,6,Ukkadam
1845,23A,7,BigBazaar
1846,23A,8,Town Hall
1847,23A,9,Government Hospital
1848,23A,10,Rainbow - Trichy rd
1849,23A,11,Sreepathi/Kannan
1850,23A,12,Sungam
1851,23A,13,Puliakulam
1852,23A,14,Udayampalayam - Sowripalayam
1853,23A,15,Sowripalayam
1854,23A,16,GV Residency
1855,23A,17,Uppilipalayam - Sowripalayam
1856,23A,18,Varatharajapuram




1857,24,1,Ukkadam
1858,24,2,BigBazaar
1859,24,3,Town Hall
1860,24,4,Government Hospital
1861,24,5,Railway Station
1862,24,6,Collectorate/DSP
1863,24,7,Uppilipalayam - Avinashi rd
1864,24,8,VOC Park
1865,24,9,Park Gate - Nanjappa rd
1866,24,10,Alankar - Nanjappa rd
1867,24,11,Gandhipuram
1868,24,12,100 feet/GP
1869,24,13,Omni bus stand
1870,24,14,Lakshmi puram - Sathy rd
1871,24,15,Textool - Sathy rd
1872,24,16,Ganapathy
1873,24,17,CMS - Ganapathy
1874,24,18,Athipalayam Pirivu - Sathy rd
1875,24,19,Bharathi nagar - Sathy rd
1876,24,20,Ramakrishna mill - Sathy rd
1877,24,21,Sivanandha mill - Sathy rd
1878,24,22,SRP mill - Sathy rd
1879,24,23,Amman kovil - Saravanampatti
1880,24,24,Kalappatti Pirivu - Sathy rd
1881,24,25,Vilankurichi
1882,24,26,Kalappatti















1883,25A,1,Saibaba Kovil
1884,25A,2,Murugan mills - MTP rd
1885,25A,3,Muthu theatre - MTP rd
1886,25A,4,TVS - MTP rd
1887,25A,5,North Coimbatore/Vadakovai
1888,25A,6,Flower Market
1889,25A,7,Sukravarpettai
1890,25A,8,Marakkadai
1891,25A,9,Town Hall
1892,25A,10,Karuppagoundan st
1893,25A,11,Chetti veedhi - Perur rd
1894,25A,12,Shivalaya - Perur rd
1895,25A,13,Muthusamy Colony - Selvapuram
1896,25A,14,LIC Colony - Selvapuram
1897,25A,15,Telungupalayam Pirivu - Perur
1898,25A,16,Aathupalam - Perur rd
1899,25A,17,Tamil kalloori - Perur
1900,25A,18,Perur


1901,26,1,Ukkadam
1902,26,2,BigBazaar
1903,26,3,Town Hall
1904,26,4,Government Hospital
1905,26,5,Railway Station
1906,26,6,Collectorate/DSP
1907,26,7,Uppilipalayam - Avinashi rd
1908,26,8,VOC Park
1909,26,9,Park Gate - Nanjappa rd
1910,26,10,Alankar - Nanjappa rd
1911,26,11,Gandhipuram
1912,26,12,100 feet/GP
1913,26,13,Kalyan - 100ft rd
1914,26,14,Karpagam Complex - 100ft
1915,26,15,Power House
1916,26,16,Sivanandha Colony
1917,26,17,Saibaba Kovil
1918,26,18,Eru Company - MTP rd
1919,26,19,Housing unit - Kovundampalayam
1920,26,20,Kavundampalayam
1921,26,21,Cheran Nagar - MTP rd
1922,26,22,ITI - MTP rd
1923,26,23,GN mills - MTP rd
1924,26,24,Vellakinar Pirivu - MTP rd
1925,26,25,Thudiyalur
1926,26,26,Vadamadurai
1927,26,27,Pannimadai
1928,26,28,Chinna Thadagam
1929,26,29,Veerapandi Pudur




1930,26A,1,Ukkadam
1931,26A,2,BigBazaar
1932,26A,3,Town Hall
1933,26A,4,Government Hospital
1934,26A,5,Railway Station
1935,26A,6,Collectorate/DSP
1936,26A,7,Uppilipalayam - Avinashi rd
1937,26A,8,VOC Park
1938,26A,9,Park Gate - Nanjappa rd
1939,26A,10,Alankar - Nanjappa rd
1940,26A,11,Gandhipuram
1941,26A,12,100 feet/GP
1942,26A,13,Kalyan - 100ft rd
1943,26A,14,Karpagam Complex - 100ft
1944,26A,15,Power House
1945,26A,16,Sivanandha Colony
1946,26A,17,Saibaba Kovil
1947,26A,18,Eru Company - MTP rd
1948,26A,19,Housing unit - Kovundampalayam
1949,26A,20,Kavundampalayam
1950,26A,21,Cheran Nagar - MTP rd
1951,26A,22,ITI - MTP rd
1952,26A,23,GN mills - MTP rd
1953,26A,24,Vellakinar Pirivu - MTP rd
1954,26A,25,Thudiyalur
1955,26A,26,Vadamadurai
1956,26A,27,Pannimadai
1957,26A,28,Chinna Thadagam
1958,26A,29,Thadagam/Anuvavi temple



1959,27,1,Railway Station
1960,27,2,Collectorate/DSP
1961,27,3,Uppilipalayam - Avinashi rd
1962,27,4,VOC Park
1963,27,5,Park Gate - Nanjappa rd
1964,27,6,Alankar - Nanjappa rd
1965,27,7,Gandhipuram
1966,27,8,100 feet/GP
1967,27,9,Kalyan - 100ft rd
1968,27,10,Karpagam Complex - 100ft
1969,27,11,Power House
1970,27,12,TVS - MTP rd
1971,27,13,Muthu theatre - MTP rd
1972,27,14,Murugan mills - MTP rd
1973,27,15,Saibaba Kovil
1974,27,16,Eru Company - MTP rd
1975,27,17,Housing unit - Kovundampalayam
1976,27,18,Kavundampalayam
1977,27,19,Cheran Nagar - MTP rd
1978,27,20,ITI - MTP rd
1979,27,21,GN mills - MTP rd
1980,27,22,Vellakinar Pirivu - MTP rd
1981,27,23,Thudiyalur
1982,27,24,Vadamadurai
1983,27,25,NGGO Colony
1984,27,26,Kumaran mill - MTP rd
1985,27,27,Narasimmanaicken palayam
1986,27,28,Ramnarayana mill - MTP rd
1987,27,29,LMW - MTP rd
1988,27,30,Periyanaickenpalayam
1989,27,31,Pricol - MTP rd
1990,27,32,Jothipuram
1991,27,33,Veerapandi Pirivu - MTP rd
1992,27,34,Press Colony - MTP rd


1993,27A,1,Ukkadam
1994,27A,2,BigBazaar
1995,27A,3,Town Hall
1996,27A,4,Government Hospital
1997,27A,5,Railway Station
1998,27A,6,Collectorate/DSP
1999,27A,7,Uppilipalayam - Avinashi rd
2000,27A,8,VOC Park
2001,27A,9,Park Gate - Nanjappa rd
2002,27A,10,Alankar - Nanjappa rd
2003,27A,11,Gandhipuram
2004,27A,12,100 feet/GP
2005,27A,13,Kalyan - 100ft rd
2006,27A,14,Karpagam Complex - 100ft
2007,27A,15,Power House
2008,27A,16,TVS - MTP rd
2009,27A,17,Muthu theatre - MTP rd
2010,27A,18,Murugan mills - MTP rd
2011,27A,19,Saibaba Kovil
2012,27A,20,Eru Company - MTP rd
2013,27A,21,Housing unit - Kovundampalayam
2014,27A,22,Kavundampalayam
2015,27A,23,Cheran Nagar - MTP rd
2016,27A,24,ITI - MTP rd
2017,27A,25,GN mills - MTP rd
2018,27A,26,Vellakinar Pirivu - MTP rd
2019,27A,27,Thudiyalur
2020,27A,28,Vadamadurai
2021,27A,29,NGGO Colony
2022,27A,30,Idigarai





2023,27B,1,Railway Station
2024,27B,2,Collectorate/DSP
2025,27B,3,Uppilipalayam - Avinashi rd
2026,27B,4,VOC Park
2027,27B,5,Park Gate - Nanjappa rd
2028,27B,6,Alankar - Nanjappa rd
2029,27B,7,Gandhipuram
2030,27B,8,100 feet/GP
2031,27B,9,Kalyan - 100ft rd
2032,27B,10,Karpagam Complex - 100ft
2033,27B,11,Power House
2034,27B,12,TVS - MTP rd
2035,27B,13,Muthu theatre - MTP rd
2036,27B,14,Murugan mills - MTP rd
2037,27B,15,Saibaba Kovil
2038,27B,16,Eru Company - MTP rd
2039,27B,17,Housing unit - Kovundampalayam
2040,27B,18,Kavundampalayam
2041,27B,19,Cheran Nagar - MTP rd
2042,27B,20,ITI - MTP rd
2043,27B,21,GN mills - MTP rd
2044,27B,22,Vellakinar Pirivu - MTP rd
2045,27B,23,Thudiyalur
2046,27B,24,Vadamadurai
2047,27B,25,NGGO Colony
2048,27B,26,Kumaran mill - MTP rd
2049,27B,27,Narasimmanaicken palayam
2050,27B,28,Ramnarayana mill - MTP rd
2051,27B,29,LMW - MTP rd
2052,27B,30,Periyanaickenpalayam
2053,27B,31,Pricol - MTP rd
2054,27B,32,Jothipuram
2055,27B,33,Veerapandi Pirivu - MTP rd
2056,27B,34,Press Colony - MTP rd


2057,27C,1,Ukkadam
2058,27C,2,BigBazaar
2059,27C,3,Town Hall
2060,27C,4,Government Hospital
2061,27C,5,Railway Station
2062,27C,6,Collectorate/DSP
2063,27C,7,Uppilipalayam - Avinashi rd
2064,27C,8,VOC Park
2065,27C,9,Park Gate - Nanjappa rd
2066,27C,10,Alankar - Nanjappa rd
2067,27C,11,Gandhipuram
2068,27C,12,100 feet/GP
2069,27C,13,Kalyan - 100ft rd
2070,27C,14,Karpagam Complex - 100ft
2071,27C,15,Power House
2072,27C,16,TVS - MTP rd
2073,27C,17,Muthu theatre - MTP rd
2074,27C,18,Murugan mills - MTP rd
2075,27C,19,Saibaba Kovil
2076,27C,20,Eru Company - MTP rd
2077,27C,21,Housing unit - Kovundampalayam
2078,27C,22,Kavundampalayam
2079,27C,23,Cheran Nagar - MTP rd
2080,27C,24,ITI - MTP rd
2081,27C,25,GN mills - MTP rd
2082,27C,26,Vellakinar Pirivu - MTP rd
2083,27C,27,Thudiyalur
2084,27C,28,Vadamadurai
2085,27C,29,NGGO Colony
2086,27C,30,Kumaran mill - MTP rd
2087,27C,31,Narasimmanaicken palayam
2088,27C,32,Ramnarayana mill - MTP rd
2089,27C,33,LMW - MTP rd
2090,27C,34,Periyanaickenpalayam
2091,27C,35,Pricol - MTP rd
2092,27C,36,Jothipuram
2093,27C,37,Veerapandi Pirivu - MTP rd
2094,27C,38,Press Colony - MTP rd



2095,2B,1,Housing Unit - Ganapathy
2096,2B,2,Bharathi nagar - Sathy rd
2097,2B,3,Athipalayam Pirivu - Sathy rd
2098,2B,4,CMS - Ganapathy
2099,2B,5,Ganapathy
2100,2B,6,Textool - Sathy rd
2101,2B,7,Lakshmi puram - Sathy rd
2102,2B,8,Omni bus stand
2103,2B,9,100 feet/GP
2104,2B,10,Gandhipuram
2105,2B,11,Alankar - Nanjappa rd
2106,2B,12,Park Gate - Nanjappa rd
2107,2B,13,VOC Park
2108,2B,14,Uppilipalayam - Avinashi rd
2109,2B,15,Collectorate/DSP
2110,2B,16,Railway Station
2111,2B,17,Government Hospital
2112,2B,18,Town Hall
2113,2B,19,Karuppagoundan st
2114,2B,20,Chetti veedhi - Perur rd
2115,2B,21,Shivalaya - Perur rd
2116,2B,22,Muthusamy Colony - Selvapuram
2117,2B,23,LIC Colony - Selvapuram
2118,2B,24,Telungupalayam Pirivu - Perur
2119,2B,25,Telungupalayam - Selvapuram



sno,route_id,stop_id,stop_name
2120,2C,1,Sanganoor
2121,2C,2,Textool - Sathy rd
2122,2C,3,Lakshmi puram - Sathy rd
2123,2C,4,Omni bus stand
2124,2C,5,100 feet/GP
2125,2C,6,Gandhipuram
2126,2C,7,Alankar - Nanjappa rd
2127,2C,8,Park Gate - Nanjappa rd
2128,2C,9,VOC Park
2129,2C,10,Uppilipalayam - Avinashi rd
2130,2C,11,Collectorate/DSP
2131,2C,12,Railway Station
2132,2C,13,Government Hospital
2133,2C,14,Town Hall
2134,2C,15,Karuppagoundan st
2135,2C,16,Chetti veedhi - Perur rd
2136,2C,17,Shivalaya - Perur rd
2137,2C,18,Muthusamy Colony - Selvapuram
2138,2C,19,LIC Colony - Selvapuram
2139,2C,20,Telungupalayam Pirivu - Perur
2140,2C,21,Aathupalam - Perur rd
2141,2C,22,Tamil kalloori - Perur
2142,2C,23,Perur
2143,2C,24,Pachapalayam - Perur





sno,route_id,stop_id,stop_name
2144,2D,1,SITRA/Airport
2145,2D,2,PSG Arts
2146,2D,3,Polytechnic - Avinashi rd
2147,2D,4,CIT - CODISSIA
2148,2D,5,CMC - Avinashi rd
2149,2D,6,Hope College
2150,2D,7,Varatharaja Mills
2151,2D,8,PSG Krishnammal
2152,2D,9,PSG Tech - Peelamedu
2153,2D,10,Suguna Kalyana Mandapam
2154,2D,11,Nava India - Avinashi rd
2155,2D,12,Lakshmi Mills Junction
2156,2D,13,Residency
2157,2D,14,Anna Statue - Avinashi rd
2158,2D,15,VOC Park
2159,2D,16,Uppilipalayam - Avinashi rd
2160,2D,17,Collectorate/DSP
2161,2D,18,Railway Station
2162,2D,19,Government Hospital
2163,2D,20,Town Hall
2164,2D,21,Karuppagoundan st
2165,2D,22,Chetti veedhi - Perur rd
2166,2D,23,Shivalaya - Perur rd
2167,2D,24,Muthusamy Colony - Selvapuram
2168,2D,25,LIC Colony - Selvapuram
2169,2D,26,Telungupalayam Pirivu - Perur
2170,2D,27,Aathupalam - Perur rd
2171,2D,28,Tamil kalloori - Perur
2172,2D,29,Perur


sno,route_id,stop_id,stop_name
2173,3,1,Ganapathy
2174,3,2,Textool - Sathy rd
2175,3,3,Lakshmi puram - Sathy rd
2176,3,4,Omni bus stand
2177,3,5,100 feet/GP
2178,3,6,Gandhipuram
2179,3,7,Alankar - Nanjappa rd
2180,3,8,Park Gate - Nanjappa rd
2181,3,9,VOC Park
2182,3,10,Uppilipalayam - Avinashi rd
2183,3,11,RMS Office
2184,3,12,Marakkadai
2185,3,13,Town Hall
2186,3,14,BigBazaar
2187,3,15,Ukkadam
2188,3,16,Karumbukkadai - Ukkadam
2189,3,17,Aathupalam/L&T tollbooth
2190,3,18,Kuniamuthur
2191,3,19,Edayarpalayam - Palghat rd
2192,3,20,Kovaipudur Pirivu
2193,3,21,Mailkal - Madukkarai
2194,3,22,Madukkarai



sno,route_id,stop_id,stop_name
2195,30,1,Ukkadam
2196,30,2,BigBazaar
2197,30,3,Town Hall
2198,30,4,Government Hospital
2199,30,5,Rainbow - Trichy rd
2200,30,6,Sreepathi/Kannan
2201,30,7,Sungam
2202,30,8,Olympus - Ramanathapuram
2203,30,9,Ramanathapuram
2204,30,10,Sowripalayam Pirivu
2205,30,11,Iyer Hospital - Trichy rd
2206,30,12,Central studio - SInganallur
2207,30,13,Rajalakshmi mills/PERKS
2208,30,14,Boat House - Singanallur
2209,30,15,Housing Unit - Singanallur
2210,30,16,Singanallur
2211,30,17,Vasantha mills - Singanallur
2212,30,18,Jai Shanthi - Singanallur
2213,30,19,Ondipudur
2214,30,20,Irugur Pirivu
2215,30,21,Sinthamanipudur
2216,30,22,Pappampatti Pirivu
2217,30,23,Pallapalayam
2218,30,24,Kannampalayam


sno,route_id,stop_id,stop_name
2219,30A,1,Ukkadam
2220,30A,2,BigBazaar
2221,30A,3,Town Hall
2222,30A,4,Government Hospital
2223,30A,5,Rainbow - Trichy rd
2224,30A,6,Sreepathi/Kannan
2225,30A,7,Sungam
2226,30A,8,Olympus - Ramanathapuram
2227,30A,9,Ramanathapuram
2228,30A,10,Sowripalayam Pirivu
2229,30A,11,Iyer Hospital - Trichy rd
2230,30A,12,Central studio - SInganallur
2231,30A,13,Rajalakshmi mills/PERKS
2232,30A,14,Boat House - Singanallur
2233,30A,15,Housing Unit - Singanallur
2234,30A,16,Singanallur
2235,30A,17,Vasantha mills - Singanallur
2236,30A,18,Jai Shanthi - Singanallur
2237,30A,19,Ondipudur
2238,30A,20,Irugur Pirivu
2239,30A,21,Sinthamanipudur
2240,30A,22,Pappampatti Pirivu
2241,30A,23,Ravathur Pirivu
2242,30A,24,Kumaran Kottam - Trichy road
2243,30A,25,Ranganathapuram - Sulur
2244,30A,26,Sulur
2245,30A,27,Kalangal - Sulur




sno,route_id,stop_id,stop_name
2246,30B,1,Ukkadam
2247,30B,2,BigBazaar
2248,30B,3,Town Hall
2249,30B,4,Government Hospital
2250,30B,5,Rainbow - Trichy rd
2251,30B,6,Sreepathi/Kannan
2252,30B,7,Sungam
2253,30B,8,Olympus - Ramanathapuram
2254,30B,9,Ramanathapuram
2255,30B,10,Sowripalayam Pirivu
2256,30B,11,Iyer Hospital - Trichy rd
2257,30B,12,Central studio - SInganallur
2258,30B,13,Rajalakshmi mills/PERKS
2259,30B,14,Boat House - Singanallur
2260,30B,15,Housing Unit - Singanallur
2261,30B,16,Singanallur
2262,30B,17,Vasantha mills - Singanallur
2263,30B,18,Jai Shanthi - Singanallur
2264,30B,19,Ondipudur
2265,30B,20,Irugur Pirivu
2266,30B,21,Sinthamanipudur
2267,30B,22,Pappampatti Pirivu
2268,30B,23,Ravathur Pirivu
2269,30B,24,Kumaran Kottam - Trichy road
2270,30B,25,Ranganathapuram - Sulur
2271,30B,26,Sulur
2272,30B,27,RVS - Sulur
2273,30B,28,Kangeyampalayam
2274,30B,29,Sulur Aero


sno,route_id,stop_id,stop_name
2275,30C,1,Ukkadam
2276,30C,2,BigBazaar
2277,30C,3,Town Hall
2278,30C,4,Government Hospital
2279,30C,5,Rainbow - Trichy rd
2280,30C,6,Sreepathi/Kannan
2281,30C,7,Sungam
2282,30C,8,Olympus - Ramanathapuram
2283,30C,9,Ramanathapuram
2284,30C,10,Sowripalayam Pirivu
2285,30C,11,Iyer Hospital - Trichy rd
2286,30C,12,Central studio - SInganallur
2287,30C,13,Rajalakshmi mills/PERKS
2288,30C,14,Boat House - Singanallur
2289,30C,15,Housing Unit - Singanallur
2290,30C,16,Singanallur
2291,30C,17,Vasantha mills - Singanallur
2292,30C,18,Jai Shanthi - Singanallur
2293,30C,19,Ondipudur
2294,30C,20,Irugur Pirivu
2295,30C,21,Sinthamanipudur
2296,30C,22,Pappampatti Pirivu
2297,30C,23,Ravathur Pirivu
2298,30C,24,Kumaran Kottam - Trichy road
2299,30C,25,Ranganathapuram - Sulur
2300,30C,26,Sulur
2301,30C,27,RVS - Sulur
2302,30C,28,Kangeyampalayam
2303,30C,29,Sulur Aero


sno,route_id,stop_id,stop_name
2304,30D,1,Gandhipuram
2305,30D,2,Womens Polytechnic
2306,30D,3,Mani School/GKNM Hospl
2307,30D,4,Lakshmi Mills Junction
2308,30D,5,Nava India - Avinashi rd
2309,30D,6,Suguna Kalyana Mandapam
2310,30D,7,PSG Tech - Peelamedu
2311,30D,8,PSG Krishnammal
2312,30D,9,Varatharaja Mills
2313,30D,10,Hope College
2314,30D,11,Manis Theatre
2315,30D,12,Ramanuja Nagar
2316,30D,13,LIONs - Singanallur
2317,30D,14,ESI - Singanallur
2318,30D,15,Varatharajapuram
2319,30D,16,Singanallur
2320,30D,17,Vasantha mills - Singanallur
2321,30D,18,Jai Shanthi - Singanallur
2322,30D,19,Ondipudur
2323,30D,20,Irugur Pirivu
2324,30D,21,Sinthamanipudur
2325,30D,22,Pappampatti Pirivu
2326,30D,23,Ravathur Pirivu
2327,30D,24,Kumaran Kottam - Trichy road
2328,30D,25,Ranganathapuram - Sulur
2329,30D,26,Sulur
2330,30D,27,Rasipalayam - Sulur
2331,30D,28,Mathappur - Somanur
2332,30D,29,Somanur




sno,route_id,stop_id,stop_name
2333,30E,1,Ukkadam
2334,30E,2,BigBazaar
2335,30E,3,Town Hall
2336,30E,4,Government Hospital
2337,30E,5,Rainbow - Trichy rd
2338,30E,6,Sreepathi/Kannan
2339,30E,7,Sungam
2340,30E,8,Olympus - Ramanathapuram
2341,30E,9,Ramanathapuram
2342,30E,10,Sowripalayam Pirivu
2343,30E,11,Iyer Hospital - Trichy rd
2344,30E,12,Central studio - SInganallur
2345,30E,13,Rajalakshmi mills/PERKS
2346,30E,14,Boat House - Singanallur
2347,30E,15,Housing Unit - Singanallur
2348,30E,16,Singanallur
2349,30E,17,Vasantha mills - Singanallur
2350,30E,18,Jai Shanthi - Singanallur
2351,30E,19,Ondipudur
2352,30E,20,Irugur Pirivu
2353,30E,21,Sinthamanipudur
2354,30E,22,Pappampatti Pirivu
2355,30E,23,Ravathur Pirivu
2356,30E,24,Kumaran Kottam - Trichy road
2357,30E,25,Ranganathapuram - Sulur
2358,30E,26,Sulur
2359,30E,27,Kalangal - Sulur
2360,30E,28,Appanaickenpatti
2361,30E,29,Selakkarachal



sno,route_id,stop_id,stop_name
2362,30F,1,Ukkadam
2363,30F,2,BigBazaar
2364,30F,3,Town Hall
2365,30F,4,Government Hospital
2366,30F,5,Rainbow - Trichy rd
2367,30F,6,Sreepathi/Kannan
2368,30F,7,Sungam
2369,30F,8,Olympus - Ramanathapuram
2370,30F,9,Ramanathapuram
2371,30F,10,Sowripalayam Pirivu
2372,30F,11,Iyer Hospital - Trichy rd
2373,30F,12,Central studio - SInganallur
2374,30F,13,Rajalakshmi mills/PERKS
2375,30F,14,Boat House - Singanallur
2376,30F,15,Housing Unit - Singanallur
2377,30F,16,Singanallur
2378,30F,17,Vasantha mills - Singanallur
2379,30F,18,Jai Shanthi - Singanallur
2380,30F,19,Ondipudur
2381,30F,20,Irugur Pirivu
2382,30F,21,Sinthamanipudur
2383,30F,22,Pappampatti Pirivu
2384,30F,23,Ravathur Pirivu
2385,30F,24,Kumaran Kottam - Trichy road
2386,30F,25,Ranganathapuram - Sulur
2387,30F,26,Sulur
2388,30F,27,RVS - Sulur
2389,30F,28,Kangeyampalayam
2390,30F,29,Sulur Aero
2391,30F,30,Karanampettai
2392,30F,31,Karugampalayam - Somanur
2393,30F,32,Samalapuram - Somanur
2394,30F,33,Somanur








sno,route_id,stop_id,stop_name
2395,30G,1,Ukkadam
2396,30G,2,BigBazaar
2397,30G,3,Town Hall
2398,30G,4,Government Hospital
2399,30G,5,Rainbow - Trichy rd
2400,30G,6,Sreepathi/Kannan
2401,30G,7,Sungam
2402,30G,8,Olympus - Ramanathapuram
2403,30G,9,Ramanathapuram
2404,30G,10,Sowripalayam Pirivu
2405,30G,11,Iyer Hospital - Trichy rd
2406,30G,12,Central studio - SInganallur
2407,30G,13,Rajalakshmi mills/PERKS
2408,30G,14,Boat House - Singanallur
2409,30G,15,Housing Unit - Singanallur
2410,30G,16,Singanallur
2411,30G,17,Vasantha mills - Singanallur
2412,30G,18,Jai Shanthi - Singanallur
2413,30G,19,Ondipudur
2414,30G,20,Irugur Pirivu
2415,30G,21,Sinthamanipudur
2416,30G,22,Pappampatti Pirivu
2417,30G,23,Ravathur Pirivu
2418,30G,24,Kumaran Kottam - Trichy road
2419,30G,25,Ranganathapuram - Sulur
2420,30G,26,Sulur
2421,30G,27,RVS - Sulur
2422,30G,28,Kangeyampalayam
2423,30G,29,Sulur Aero
2424,30G,30,Karanampettai
2425,30G,31,Karugampalayam - Somanur
2426,30G,32,Samalapuram - Somanur
2427,30G,33,Somanur




sno,route_id,stop_id,stop_name
2428,30H,1,Ukkadam
2429,30H,2,BigBazaar
2430,30H,3,Town Hall
2431,30H,4,Government Hospital
2432,30H,5,Rainbow - Trichy rd
2433,30H,6,Sreepathi/Kannan
2434,30H,7,Sungam
2435,30H,8,Olympus - Ramanathapuram
2436,30H,9,Ramanathapuram
2437,30H,10,Sowripalayam Pirivu
2438,30H,11,Iyer Hospital - Trichy rd
2439,30H,12,Central studio - SInganallur
2440,30H,13,Rajalakshmi mills/PERKS
2441,30H,14,Boat House - Singanallur
2442,30H,15,Housing Unit - Singanallur
2443,30H,16,Singanallur
2444,30H,17,Vasantha mills - Singanallur
2445,30H,18,Jai Shanthi - Singanallur
2446,30H,19,Ondipudur
2447,30H,20,Irugur Pirivu
2448,30H,21,Sinthamanipudur
2449,30H,22,Pappampatti Pirivu
2450,30H,23,Ravathur Pirivu
2451,30H,24,Kumaran Kottam - Trichy road
2452,30H,25,Ranganathapuram - Sulur
2453,30H,26,Sulur
2454,30H,27,Rasipalayam - Sulur
2455,30H,28,Mathappur - Somanur
2456,30H,29,Somanur

sno,route_id,stop_id,stop_name
2457,30J,1,Ukkadam
2458,30J,2,BigBazaar
2459,30J,3,Town Hall
2460,30J,4,Government Hospital
2461,30J,5,Rainbow - Trichy rd
2462,30J,6,Sreepathi/Kannan
2463,30J,7,Sungam
2464,30J,8,Olympus - Ramanathapuram
2465,30J,9,Ramanathapuram
2466,30J,10,Sowripalayam Pirivu
2467,30J,11,Iyer Hospital - Trichy rd
2468,30J,12,Central studio - SInganallur
2469,30J,13,Rajalakshmi mills/PERKS
2470,30J,14,Boat House - Singanallur
2471,30J,15,Housing Unit - Singanallur
2472,30J,16,Singanallur
2473,30J,17,Vasantha mills - Singanallur
2474,30J,18,Jai Shanthi - Singanallur
2475,30J,19,Ondipudur
2476,30J,20,Irugur Pirivu
2477,30J,21,Sinthamanipudur
2478,30J,22,Pappampatti Pirivu
2479,30J,23,Ravathur Pirivu
2480,30J,24,Kumaran Kottam - Trichy road
2481,30J,25,Ranganathapuram - Sulur
2482,30J,26,Sulur
2483,30J,27,RVS - Sulur
2484,30J,28,Kangeyampalayam
2485,30J,29,Sulur Aero



sno,route_id,stop_id,stop_name
2486,31A,1,Ondipudur
2487,31A,2,Jai Shanthi - Singanallur
2488,31A,3,Vasantha mills - Singanallur
2489,31A,4,Singanallur
2490,31A,5,Housing Unit - Singanallur
2491,31A,6,Boat House - Singanallur
2492,31A,7,Rajalakshmi mills/PERKS
2493,31A,8,Central studio - SInganallur
2494,31A,9,Iyer Hospital - Trichy rd
2495,31A,10,Sowripalayam Pirivu
2496,31A,11,Ramanathapuram
2497,31A,12,Olympus - Ramanathapuram
2498,31A,13,Sungam
2499,31A,14,Sreepathi/Kannan
2500,31A,15,Rainbow - Trichy rd
2501,31A,16,Government Hospital
2502,31A,17,Town Hall
2503,31A,18,BigBazaar
2504,31A,19,Ukkadam
2505,31A,20,Karumbukkadai - Ukkadam
2506,31A,21,Aathupalam/L&T tollbooth
2507,31A,22,Kuniamuthur
2508,31A,23,Edayarpalayam - Palghat rd
2509,31A,24,Kovaipudur Pirivu
2510,31A,25,Mailkal - Madukkarai
2511,31A,26,Madukkarai





sno,route_id,stop_id,stop_name
2512,31D,1,Neelambur
2513,31D,2,Chinniyampalayam
2514,31D,3,Rangasamy Goundan pudur
2515,31D,4,Thottipalayam Pirivu
2516,31D,5,Goldwins
2517,31D,6,KMCH - Avinashi rd
2518,31D,7,SITRA/Airport
2519,31D,8,PSG Arts
2520,31D,9,Polytechnic - Avinashi rd
2521,31D,10,CIT - CODISSIA
2522,31D,11,CMC - Avinashi rd
2523,31D,12,Hope College
2524,31D,13,Varatharaja Mills
2525,31D,14,PSG Krishnammal
2526,31D,15,PSG Tech - Peelamedu
2527,31D,16,Suguna Kalyana Mandapam
2528,31D,17,Nava India - Avinashi rd
2529,31D,18,Lakshmi Mills Junction
2530,31D,19,Residency
2531,31D,20,Anna Statue - Avinashi rd
2532,31D,21,VOC Park
2533,31D,22,Uppilipalayam - Avinashi rd
2534,31D,23,Collectorate/DSP
2535,31D,24,Railway Station
2536,31D,25,Government Hospital
2537,31D,26,Town Hall
2538,31D,27,BigBazaar
2539,31D,28,Ukkadam
2540,31D,29,Karumbukkadai - Ukkadam
2541,31D,30,Aathupalam/L&T tollbooth
2542,31D,31,Kurichi
2543,31D,32,Sundharapuram
2544,31D,33,SIDCO - Pollachi rd
2545,31D,34,Eachanari Rly gate
2546,31D,35,Rathinam Institutions
2547,31D,36,Eachanari
2548,31D,37,Karpagam University
2549,31D,38,Malumichampatti
2550,31D,39,Othakalmandapam
2551,31D,40,Arasipalayam

sno,route_id,stop_id,stop_name
2552,32,1,Gandhipuram
2553,32,2,100 feet/GP
2554,32,3,Kalyan - 100ft rd
2555,32,4,Karpagam Complex - 100ft
2556,32,5,Power House
2557,32,6,Sivanandha Colony
2558,32,7,Saibaba Kovil
2559,32,8,Eru Company - MTP rd
2560,32,9,Housing unit - Kovundampalayam
2561,32,10,Kavundampalayam
2562,32,11,Cheran Nagar - MTP rd
2563,32,12,ITI - MTP rd
2564,32,13,GN mills - MTP rd
2565,32,14,Vellakinar Pirivu - MTP rd
2566,32,15,Thudiyalur
2567,32,16,Vadamadurai
2568,32,17,NGGO Colony
2569,32,18,Kumaran mill - MTP rd
2570,32,19,Narasimmanaicken palayam
2571,32,20,Ramnarayana mill - MTP rd
2572,32,21,LMW - MTP rd
2573,32,22,Periyanaickenpalayam
sno,route_id,stop_id,stop_name
2574,32A,1,Railway Station
2575,32A,2,Government Hospital
2576,32A,3,Town Hall
2577,32A,4,Sukravarpettai
2578,32A,5,Marakkadai
2579,32A,6,Flower Market
2580,32A,7,North Coimbatore/Vadakovai
2581,32A,8,TVS - MTP rd
2582,32A,9,Muthu theatre - MTP rd
2583,32A,10,Murugan mills - MTP rd
2584,32A,11,Saibaba Kovil
2585,32A,12,Eru Company - MTP rd
2586,32A,13,Housing unit - Kovundampalayam
2587,32A,14,Kavundampalayam
2588,32A,15,Cheran Nagar - MTP rd
2589,32A,16,ITI - MTP rd
2590,32A,17,GN mills - MTP rd
2591,32A,18,Vellakinar Pirivu - MTP rd
2592,32A,19,Thudiyalur
2593,32A,20,Vadamadurai
2594,32A,21,NGGO Colony
2595,32A,22,Kumaran mill - MTP rd
2596,32A,23,Narasimmanaicken palayam
2597,32A,24,Ramnarayana mill - MTP rd
2598,32A,25,LMW - MTP rd
2599,32A,26,Periyanaickenpalayam
2600,32A,27,Pricol - MTP rd
2601,32A,28,Jothipuram
2602,32A,29,Veerapandi Pirivu - MTP rd
2603,32A,30,Press Colony - MTP rd
sno,route_id,stop_id,stop_name
2604,32B,1,Ukkadam
2605,32B,2,BigBazaar
2606,32B,3,Town Hall
2607,32B,4,Sukravarpettai
2608,32B,5,Marakkadai
2609,32B,6,Flower Market
2610,32B,7,North Coimbatore/Vadakovai
2611,32B,8,TVS - MTP rd
2612,32B,9,Muthu theatre - MTP rd
2613,32B,10,Murugan mills - MTP rd
2614,32B,11,Saibaba Kovil
2615,32B,12,Eru Company - MTP rd
2616,32B,13,Housing unit - Kovundampalayam
2617,32B,14,Kavundampalayam
2618,32B,15,Cheran Nagar - MTP rd
2619,32B,16,ITI - MTP rd
2620,32B,17,GN mills - MTP rd
2621,32B,18,Vellakinar Pirivu - MTP rd
2622,32B,19,Thudiyalur
2623,32B,20,Vadamadurai
2624,32B,21,NGGO Colony
2625,32B,22,Kumaran mill - MTP rd
2626,32B,23,Narasimmanaicken palayam
2627,32B,24,Ramnarayana mill - MTP rd
2628,32B,25,LMW - MTP rd
2629,32B,26,Periyanaickenpalayam
sno,route_id,stop_id,stop_name
2630,32C,1,Railway Station
2631,32C,2,Government Hospital
2632,32C,3,Town Hall
2633,32C,4,Sukravarpettai
2634,32C,5,Marakkadai
2635,32C,6,Flower Market
2636,32C,7,North Coimbatore/Vadakovai
2637,32C,8,TVS - MTP rd
2638,32C,9,Muthu theatre - MTP rd
2639,32C,10,Murugan mills - MTP rd
2640,32C,11,Saibaba Kovil
2641,32C,12,Eru Company - MTP rd
2642,32C,13,Housing unit - Kovundampalayam
2643,32C,14,Kavundampalayam
2644,32C,15,Cheran Nagar - MTP rd
2645,32C,16,ITI - MTP rd
2646,32C,17,GN mills - MTP rd
2647,32C,18,Vellakinar Pirivu - MTP rd
2648,32C,19,Thudiyalur
2649,32C,20,Vadamadurai
2650,32C,21,NGGO Colony
2651,32C,22,Kumaran mill - MTP rd
2652,32C,23,Narasimmanaicken palayam
2653,32C,24,Ramnarayana mill - MTP rd
2654,32C,25,LMW - MTP rd
2655,32C,26,Periyanaickenpalayam
sno,route_id,stop_id,stop_name
2656,32D,1,Railway Station
2657,32D,2,Government Hospital
2658,32D,3,Town Hall
2659,32D,4,Sukravarpettai
2660,32D,5,Marakkadai
2661,32D,6,Flower Market
2662,32D,7,North Coimbatore/Vadakovai
2663,32D,8,TVS - MTP rd
2664,32D,9,Muthu theatre - MTP rd
2665,32D,10,Murugan mills - MTP rd
2666,32D,11,Saibaba Kovil
2667,32D,12,Eru Company - MTP rd
2668,32D,13,Housing unit - Kovundampalayam
2669,32D,14,Kavundampalayam
2670,32D,15,Cheran Nagar - MTP rd
2671,32D,16,ITI - MTP rd
2672,32D,17,GN mills - MTP rd
2673,32D,18,Vellakinar Pirivu - MTP rd
2674,32D,19,Thudiyalur
2675,32D,20,Vadamadurai
2676,32D,21,NGGO Colony
2677,32D,22,Kumaran mill - MTP rd
2678,32D,23,Narasimmanaicken palayam
2679,32D,24,Ramnarayana mill - MTP rd
2680,32D,25,LMW - MTP rd
2681,32D,26,Periyanaickenpalayam
2682,32D,27,Pricol - MTP rd
2683,32D,28,Jothipuram
2684,32D,29,Veerapandi Pirivu - MTP rd
2685,32D,30,Ravathur Pirivu
2686,32D,31,Kumaran Kottam - Trichy road
2687,32D,32,Ranganathapuram - Sulur
2688,32D,33,Sulur
2689,32D,34,Rasipalayam - Sulur
2690,32D,35,Mathappur - Somanur
2691,32D,36,Somanur
sno,route_id,stop_id,stop_name
2692,32E,1,Railway Station
2693,32E,2,Government Hospital
2694,32E,3,Town Hall
2695,32E,4,Sukravarpettai
2696,32E,5,Marakkadai
2697,32E,6,Flower Market
2698,32E,7,North Coimbatore/Vadakovai
2699,32E,8,TVS - MTP rd
2700,32E,9,Muthu theatre - MTP rd
2701,32E,10,Murugan mills - MTP rd
2702,32E,11,Saibaba Kovil
2703,32E,12,Eru Company - MTP rd
2704,32E,13,Housing unit - Kovundampalayam
2705,32E,14,Kavundampalayam
2706,32E,15,Cheran Nagar - MTP rd
2707,32E,16,ITI - MTP rd
2708,32E,17,GN mills - MTP rd
2709,32E,18,Vellakinar Pirivu - MTP rd
2710,32E,19,Thudiyalur
2711,32E,20,Vadamadurai
2712,32E,21,NGGO Colony
2713,32E,22,Kumaran mill - MTP rd
2714,32E,23,Narasimmanaicken palayam
2715,32E,24,Ramnarayana mill - MTP rd
2716,32E,25,LMW - MTP rd
2717,32E,26,Periyanaickenpalayam
2718,32E,27,Pricol - MTP rd
2719,32E,28,Jothipuram
2720,32E,29,Veerapandi Pirivu - MTP rd
2721,32E,30,Press Colony - MTP rd
sno,route_id,stop_id,stop_name
2722,32G,1,Gandhipuram
2723,32G,2,100 feet/GP
2724,32G,3,Kalyan - 100ft rd
2725,32G,4,Karpagam Complex - 100ft
2726,32G,5,Power House
2727,32G,6,Sivanandha Colony
2728,32G,7,Saibaba Kovil
2729,32G,8,Eru Company - MTP rd
2730,32G,9,Housing unit - Kovundampalayam
2731,32G,10,Kavundampalayam
2732,32G,11,Cheran Nagar - MTP rd
2733,32G,12,ITI - MTP rd
2734,32G,13,GN mills - MTP rd
2735,32G,14,Vellakinar Pirivu - MTP rd
2736,32G,15,Thudiyalur
2737,32G,16,Vadamadurai
2738,32G,17,NGGO Colony
2739,32G,18,Kumaran mill - MTP rd
2740,32G,19,Narasimmanaicken palayam
2741,32G,20,Ramnarayana mill - MTP rd
2742,32G,21,LMW - MTP rd
2743,32G,22,Periyanaickenpalayam
2744,32G,23,Pricol - MTP rd
2745,32G,24,Jothipuram
2746,32G,25,Veerapandi Pirivu - MTP rd
2747,32G,26,Vellamadai
sno,route_id,stop_id,stop_name
2748,32H,1,Ukkadam
2749,32H,2,BigBazaar
2750,32H,3,Town Hall
2751,32H,4,Sukravarpettai
2752,32H,5,Marakkadai
2753,32H,6,Flower Market
2754,32H,7,North Coimbatore/Vadakovai
2755,32H,8,TVS - MTP rd
2756,32H,9,Muthu theatre - MTP rd
2757,32H,10,Murugan mills - MTP rd
2758,32H,11,Saibaba Kovil
2759,32H,12,Eru Company - MTP rd
2760,32H,13,Housing unit - Kovundampalayam
2761,32H,14,Kavundampalayam
2762,32H,15,Cheran Nagar - MTP rd
2763,32H,16,ITI - MTP rd
2764,32H,17,GN mills - MTP rd
2765,32H,18,Vellakinar Pirivu - MTP rd
2766,32H,19,Thudiyalur
2767,32H,20,Vadamadurai
2768,32H,21,NGGO Colony
2769,32H,22,Kumaran mill - MTP rd
2770,32H,23,Narasimmanaicken palayam
2771,32H,24,Ramnarayana mill - MTP rd
2772,32H,25,LMW - MTP rd
2773,32H,26,Periyanaickenpalayam
sno,route_id,stop_id,stop_name
2784,32K,1,Railway Station
2785,32K,2,Government Hospital
2786,32K,3,Town Hall
2787,32K,4,Sukravarpettai
2788,32K,5,Marakkadai
2789,32K,6,Flower Market
2790,32K,7,North Coimbatore/Vadakovai
2791,32K,8,TVS - MTP rd
2792,32K,9,Muthu theatre - MTP rd
2793,32K,10,Murugan mills - MTP rd
2794,32K,11,Saibaba Kovil
2795,32K,12,Eru Company - MTP rd
2796,32K,13,Housing unit - Kovundampalayam
2797,32K,14,Kavundampalayam
2798,32K,15,Cheran Nagar - MTP rd
2799,32K,16,ITI - MTP rd
2800,32K,17,GN mills - MTP rd
2801,32K,18,Vellakinar Pirivu - MTP rd
2802,32K,19,Thudiyalur
2803,32K,20,Vadamadurai
2804,32K,21,NGGO Colony
2805,32K,22,Kumaran mill - MTP rd
2806,32K,23,Narasimmanaicken palayam
2807,32K,24,Ramnarayana mill - MTP rd
2808,32K,25,LMW - MTP rd
2809,32K,26,Periyanaickenpalayam
sno,route_id,stop_id,stop_name
2810,32M,1,Railway Station
2811,32M,2,Government Hospital
2812,32M,3,Town Hall
2813,32M,4,Sukravarpettai
2814,32M,5,Marakkadai
2815,32M,6,Flower Market
2816,32M,7,North Coimbatore/Vadakovai
2817,32M,8,TVS - MTP rd
2818,32M,9,Muthu theatre - MTP rd
2819,32M,10,Murugan mills - MTP rd
2820,32M,11,Saibaba Kovil
2821,32M,12,Eru Company - MTP rd
2822,32M,13,Housing unit - Kovundampalayam
2823,32M,14,Kavundampalayam
2824,32M,15,Cheran Nagar - MTP rd
2825,32M,16,ITI - MTP rd
2826,32M,17,GN mills - MTP rd
2827,32M,18,Vellakinar Pirivu - MTP rd
2828,32M,19,Thudiyalur
2829,32M,20,Vadamadurai
2830,32M,21,NGGO Colony
2831,32M,22,Kumaran mill - MTP rd
2832,32M,23,Narasimmanaicken palayam
2833,32M,24,Ramnarayana mill - MTP rd
2834,32M,25,LMW - MTP rd
2835,32M,26,Periyanaickenpalayam
2836,32M,27,Pricol - MTP rd
2837,32M,28,Jothipuram
2838,32M,29,Veerapandi Pirivu - MTP rd
sno,route_id,stop_id,stop_name
2839,33,1,Railway Station
2840,33,2,Government Hospital
2841,33,3,Town Hall
2842,33,4,BigBazaar
2843,33,5,Ukkadam
2844,33,6,Karumbukkadai - Ukkadam
2845,33,7,Aathupalam/L&T tollbooth
2846,33,8,Kurichi
2847,33,9,Sundharapuram
2848,33,10,SIDCO - Pollachi rd
2849,33,11,Eachanari Rly gate
2850,33,12,Rathinam Institutions
2851,33,13,Eachanari
2852,33,14,Karpagam University
2853,33,15,Malumichampatti
2854,33,16,Othakalmandapam
2855,33,17,Myleripalayam Pirivu
2856,33,18,Kinathukadavu
sno,route_id,stop_id,stop_name
2859,33A,1,Gandhipuram
2860,33A,2,Alankar - Nanjappa rd
2861,33A,3,Park Gate - Nanjappa rd
2862,33A,4,VOC Park
2863,33A,5,Uppilipalayam - Avinashi rd
2864,33A,6,Collectorate/DSP
2865,33A,7,Railway Station
2866,33A,8,Government Hospital
2867,33A,9,Town Hall
2868,33A,10,BigBazaar
2869,33A,11,Ukkadam
2870,33A,12,Karumbukkadai - Ukkadam
2871,33A,13,Aathupalam/L&T tollbooth
2872,33A,14,Kurichi
2873,33A,15,Sundharapuram
2874,33A,16,SIDCO - Pollachi rd
2875,33A,17,Eachanari Rly gate
2876,33A,18,Rathinam Institutions
2877,33A,19,Eachanari
2878,33A,20,Karpagam University
2879,33A,21,Malumichampatti
2880,33A,22,Othakalmandapam
2881,33A,23,Myleripalayam Pirivu
2882,33A,24,Kinathukadavu
sno,route_id,stop_id,stop_name
2883,33B,1,Gandhipuram
2884,33B,2,Alankar - Nanjappa rd
2885,33B,3,Park Gate - Nanjappa rd
2886,33B,4,VOC Park
2887,33B,5,Uppilipalayam - Avinashi rd
2888,33B,6,Collectorate/DSP
2889,33B,7,Railway Station
2890,33B,8,Government Hospital
2891,33B,9,Town Hall
2892,33B,10,BigBazaar
2893,33B,11,Ukkadam
2894,33B,12,Karumbukkadai - Ukkadam
2895,33B,13,Aathupalam/L&T tollbooth
2896,33B,14,Kurichi
2897,33B,15,Sundharapuram
2898,33B,16,SIDCO - Pollachi rd
2899,33B,17,Eachanari Rly gate
2900,33B,18,Rathinam Institutions
2901,33B,19,Eachanari
2902,33B,20,Karpagam University
2903,33B,21,Malumichampatti
2904,33B,22,Othakalmandapam
2905,33B,23,Myleripalayam Pirivu
2906,33B,24,Kinathukadavu
sno,route_id,stop_id,stop_name
2907,33C,1,Railway Station
2908,33C,2,Government Hospital
2909,33C,3,Town Hall
2910,33C,4,BigBazaar
2911,33C,5,Ukkadam
2912,33C,6,Karumbukkadai - Ukkadam
2913,33C,7,Aathupalam/L&T tollbooth
2914,33C,8,Kurichi
2915,33C,9,Sundharapuram
2916,33C,10,SIDCO - Pollachi rd
2917,33C,11,Eachanari Rly gate
2918,33C,12,Rathinam Institutions
2919,33C,13,Eachanari
2920,33C,14,Karpagam University
2921,33C,15,Malumichampatti
2922,33C,16,Othakalmandapam
2923,33C,17,Myleripalayam Pirivu
2924,33C,18,Kinathukadavu
sno,route_id,stop_id,stop_name
2925,33D,1,Railway Station
2926,33D,2,Government Hospital
2927,33D,3,Town Hall
2928,33D,4,BigBazaar
2929,33D,5,Ukkadam
2930,33D,6,Karumbukkadai - Ukkadam
2931,33D,7,Aathupalam/L&T tollbooth
2932,33D,8,Kurichi
2933,33D,9,Sundharapuram
2934,33D,10,SIDCO - Pollachi rd
2935,33D,11,Eachanari Rly gate
2936,33D,12,Rathinam Institutions
2937,33D,13,Eachanari
2938,33D,14,Karpagam University
2939,33D,15,Malumichampatti
2940,33D,16,Othakalmandapam
2941,33D,17,Myleripalayam Pirivu
2942,33D,18,Kinathukadavu
sno,route_id,stop_id,stop_name
2925,33D,1,Railway Station
2926,33D,2,Government Hospital
2927,33D,3,Town Hall
2928,33D,4,BigBazaar
2929,33D,5,Ukkadam
2930,33D,6,Karumbukkadai - Ukkadam
2931,33D,7,Aathupalam/L&T tollbooth
2932,33D,8,Kurichi
2933,33D,9,Sundharapuram
2934,33D,10,SIDCO - Pollachi rd
2935,33D,11,Eachanari Rly gate
2936,33D,12,Rathinam Institutions
2937,33D,13,Eachanari
2938,33D,14,Karpagam University
2939,33D,15,Malumichampatti
2940,33D,16,Othakalmandapam
2941,33D,17,Myleripalayam Pirivu
2942,33D,18,Kinathukadavu
sno,route_id,stop_id,stop_name
2943,33E,1,Town Hall
2944,33E,2,BigBazaar
2945,33E,3,Ukkadam
2946,33E,4,Karumbukkadai - Ukkadam
2947,33E,5,Aathupalam/L&T tollbooth
2948,33E,6,Kurichi
2949,33E,7,Sundharapuram
2950,33E,8,SIDCO - Pollachi rd
2951,33E,9,Eachanari Rly gate
2952,33E,10,Rathinam Institutions
2953,33E,11,Eachanari
2954,33E,12,Karpagam University
2955,33E,13,Malumichampatti
2956,33E,14,Othakalmandapam
2957,33E,15,Myleripalayam Pirivu
2958,33E,16,Kinathukadavu
sno,route_id,stop_id,stop_name
2959,33F,1,Ukkadam
2960,33F,2,Karumbukkadai - Ukkadam
2961,33F,3,Aathupalam/L&T tollbooth
2962,33F,4,Kurichi
2963,33F,5,Sundharapuram
2964,33F,6,SIDCO - Pollachi rd
2965,33F,7,Eachanari Rly gate
2966,33F,8,Rathinam Institutions
2967,33F,9,Eachanari
2968,33F,10,Karpagam University
2969,33F,11,Malumichampatti
2970,33F,12,Othakalmandapam
2971,33F,13,Myleripalayam Pirivu
2972,33F,14,Kinathukadavu
sno,route_id,stop_id,stop_name
2973,33G,1,Railway Station
2974,33G,2,Government Hospital
2975,33G,3,Town Hall
2976,33G,4,BigBazaar
2977,33G,5,Ukkadam
2978,33G,6,Karumbukkadai - Ukkadam
2979,33G,7,Aathupalam/L&T tollbooth
2980,33G,8,Kurichi
2981,33G,9,Sundharapuram
2982,33G,10,SIDCO - Pollachi rd
2983,33G,11,Eachanari Rly gate
2984,33G,12,Rathinam Institutions
2985,33G,13,Eachanari
2986,33G,14,Karpagam University
2987,33G,15,Malumichampatti
2988,33G,16,Othakalmandapam
2989,33G,17,Myleripalayam Pirivu
2990,33G,18,Kinathukadavu
sno,route_id,stop_id,stop_name
2991,34,1,Ramanathapuram
2992,34,2,Olympus - Ramanathapuram
2993,34,3,Sungam
2994,34,4,Sreepathi/Kannan
2995,34,5,Rainbow - Trichy rd
2996,34,6,Government Hospital
2997,34,7,Town Hall
2998,34,8,Sukravarpettai
2999,34,9,Marakkadai
3000,34,10,Gandhi Park
3001,34,11,Pal Company(Aavin)
3002,34,12,Lawley Road
3003,34,13,GCT - Thadagam rd
3004,34,14,Venkittapuram
3005,34,15,Velandipalayam
3006,34,16,Kovilmedu
3007,34,17,Sivaji Colony - Thadagam rd
3008,34,18,Edayarpalayam - Thadagam rd
3009,34,19,TVS Nagar - Thadagam rd
3010,34,20,KNG Pudur
3011,34,21,Kanuvai
3012,34,22,Somayanur - Thadagam rd
3013,34,23,Chinna Thadagam
3014,34,24,Thadagam/Anuvavi temple
sno,route_id,stop_id,stop_name
3015,35,1,Aavarampalayam
3016,35,2,Ramakrishna Hospital
3017,35,3,Womens Polytechnic
3018,35,4,Gandhipuram
3019,35,5,Alankar - Nanjappa rd
3020,35,6,Park Gate - Nanjappa rd
3021,35,7,VOC Park
3022,35,8,Uppilipalayam - Avinashi rd
3023,35,9,Collectorate/DSP
3024,35,10,Railway Station
3025,35,11,Government Hospital
3026,35,12,Town Hall
3027,35,13,Karuppagoundan st
3028,35,14,Chetti veedhi - Perur rd
3029,35,15,Shivalaya - Perur rd
3030,35,16,Muthusamy Colony - Selvapuram
3031,35,17,LIC Colony - Selvapuram
3032,35,18,Telungupalayam Pirivu - Perur
3033,35,19,Aathupalam - Perur rd
3034,35,20,Tamil kalloori - Perur
3035,35,21,Perur
3036,35,22,Kovai Kondattam
3037,35,23,Mathampatti
3038,35,24,Karadimadai
sno,route_id,stop_id,stop_name
3039,35A,1,Gandhipuram
3040,35A,2,100 feet/GP
3041,35A,3,Kalyan - 100ft rd
3042,35A,4,Karpagam Complex - 100ft
3043,35A,5,Power House
3044,35A,6,North Coimbatore/Vadakovai
3045,35A,7,Savitha Hall - R.S.Puram
3046,35A,8,Post Office - R.S.Puram
3047,35A,9,Annapoorna - R.S.Puram
3048,35A,10,Kennedy - R.S.Puram
3049,35A,11,Gandhi Park
3050,35A,12,Veera Keralam
3051,35A,13,Vedapatti
3052,35A,14,Onapalayam - Thondamuthur rd
3053,35A,15,Kulathupalayam
3054,35A,16,Thondamuthur
3055,35A,17,Mathampatti
3056,35A,18,Karadimadai
sno,route_id,stop_id,stop_name
3057,36,1,PN pudur - Vadavalli
3058,36,2,Agricultural University
3059,36,3,Lawley Road
3060,36,4,Pal Company(Aavin)
3061,36,5,Gandhi Park
3062,36,6,Kennedy - R.S.Puram
3063,36,7,Annapoorna - R.S.Puram
3064,36,8,Post Office - R.S.Puram
3065,36,9,Savitha Hall - R.S.Puram
3066,36,10,North Coimbatore/Vadakovai
3067,36,11,Power House
3068,36,12,Karpagam Complex - 100ft
3069,36,13,Kalyan - 100ft rd
3070,36,14,100 feet/GP
3071,36,15,Gandhipuram
3072,36,16,Womens Polytechnic
3073,36,17,Mani School/GKNM Hospl
3074,36,18,Lakshmi Mills Junction
3075,36,19,Nava India - Avinashi rd
3076,36,20,Suguna Kalyana Mandapam
3077,36,21,PSG Tech - Peelamedu
3078,36,22,PSG Krishnammal
3079,36,23,Varatharaja Mills
3080,36,24,Hope College
3081,36,25,Manis Theatre
3082,36,26,Ramanuja Nagar
3083,36,27,LIONs - Singanallur
3084,36,28,ESI - Singanallur
3085,36,29,Varatharajapuram
3086,36,30,Singanallur
3087,36,31,Vasantha mills - Singanallur
3088,36,32,Jai Shanthi - Singanallur
3089,36,33,Ondipudur
sno,route_id,stop_id,stop_name
3090,37,1,Ukkadam
3091,37,2,BigBazaar
3092,37,3,Town Hall
3093,37,4,Government Hospital
3094,37,5,Rainbow - Trichy rd
3095,37,6,Sreepathi/Kannan
3096,37,7,Sungam
3097,37,8,Olympus - Ramanathapuram
3098,37,9,Ramanathapuram
3099,37,10,Sowripalayam Pirivu
3100,37,11,Iyer Hospital - Trichy rd
3101,37,12,Central studio - SInganallur
3102,37,13,Rajalakshmi mills/PERKS
3103,37,14,Boat House - Singanallur
3104,37,15,Housing Unit - Singanallur
3105,37,16,Singanallur
3106,37,17,Vasantha mills - Singanallur
3107,37,18,Jai Shanthi - Singanallur
3108,37,19,Ondipudur
3109,37,20,Irugur Pirivu
3110,37,21,Sinthamanipudur
3111,37,22,Pappampatti Pirivu
3112,37,23,Pallapalayam
3113,37,24,Pappampatti
3114,37,25,Kallapalayam - Pappampatti
sno,route_id,stop_id,stop_name
3115,38A,1,LIC Colony - Selvapuram
3116,38A,2,Muthusamy Colony - Selvapuram
3117,38A,3,Shivalaya - Perur rd
3118,38A,4,Chetti veedhi - Perur rd
3119,38A,5,Karuppagoundan st
3120,38A,6,Town Hall
3121,38A,7,Government Hospital
3122,38A,8,Railway Station
3123,38A,9,Collectorate/DSP
3124,38A,10,Uppilipalayam - Avinashi rd
3125,38A,11,VOC Park
3126,38A,12,Park Gate - Nanjappa rd
3127,38A,13,Alankar - Nanjappa rd
3128,38A,14,Gandhipuram
3129,38A,15,100 feet/GP
3130,38A,16,Kalyan - 100ft rd
3131,38A,17,Karpagam Complex - 100ft
3132,38A,18,Power House
3133,38A,19,Sivanandha Colony
3134,38A,20,Saibaba Kovil
3135,38A,21,Eru Company - MTP rd
3136,38A,22,Housing unit - Kovundampalayam
3137,38A,23,Kavundampalayam
3138,38A,24,Cheran Nagar - MTP rd
3139,38A,25,ITI - MTP rd
3140,38A,26,GN mills - MTP rd
3141,38A,27,Vellakinar Pirivu - MTP rd
3142,38A,28,Thudiyalur
sno,route_id,stop_id,stop_name
3143,39,1,Ukkadam
3144,39,2,BigBazaar
3145,39,3,Town Hall
3146,39,4,Government Hospital
3147,39,5,Railway Station
3148,39,6,Collectorate/DSP
3149,39,7,Uppilipalayam - Avinashi rd
3150,39,8,VOC Park
3151,39,9,Anna Statue - Avinashi rd
3152,39,10,Residency
3153,39,11,Lakshmi Mills Junction
3154,39,12,Nava India - Avinashi rd
3155,39,13,Suguna Kalyana Mandapam
3156,39,14,PSG Tech - Peelamedu
3157,39,15,PSG Krishnammal
3158,39,16,Varatharaja Mills
3159,39,17,Hope College
3160,39,18,CMC - Avinashi rd
3161,39,19,CIT - CODISSIA
3162,39,20,Polytechnic - Avinashi rd
3163,39,21,PSG Arts
3164,39,22,SITRA/Airport
3165,39,23,KMCH - Avinashi rd
3166,39,24,Goldwins
3167,39,25,Thottipalayam Pirivu
3168,39,26,Rangasamy Goundan pudur
3169,39,27,Chinniyampalayam
sno,route_id,stop_id,stop_name
3170,39A,1,Ukkadam
3171,39A,2,BigBazaar
3172,39A,3,Town Hall
3173,39A,4,Government Hospital
3174,39A,5,Rainbow - Trichy rd
3175,39A,6,Sreepathi/Kannan
3176,39A,7,Sungam
3177,39A,8,Olympus - Ramanathapuram
3178,39A,9,Ramanathapuram
3179,39A,10,GEM Hospital - Ramanathapuram
3180,39A,11,Puliakulam
3181,39A,12,Dhamu nagar - Puliakulam
3182,39A,13,Kidney Centre
3183,39A,14,Lakshmi Mills Junction
3184,39A,15,Nava India - Avinashi rd
3185,39A,16,Suguna Kalyana Mandapam
3186,39A,17,PSG Tech - Peelamedu
3187,39A,18,PSG Krishnammal
3188,39A,19,Varatharaja Mills
3189,39A,20,Hope College
3190,39A,21,CMC - Avinashi rd
3191,39A,22,CIT - CODISSIA
3192,39A,23,Polytechnic - Avinashi rd
3193,39A,24,PSG Arts
3194,39A,25,SITRA/Airport
3195,39A,26,KMCH - Avinashi rd
3196,39A,27,Goldwins
3197,39A,28,Thottipalayam Pirivu
3198,39A,29,Rangasamy Goundan pudur
3199,39A,30,Chinniyampalayam
sno,route_id,stop_id,stop_name
3200,3A,1,Ganapathy
3201,3A,2,Textool - Sathy rd
3202,3A,3,Lakshmi puram - Sathy rd
3203,3A,4,Omni bus stand
3204,3A,5,100 feet/GP
3205,3A,6,Gandhipuram
3206,3A,7,Alankar - Nanjappa rd
3207,3A,8,Park Gate - Nanjappa rd
3208,3A,9,VOC Park
3209,3A,10,Uppilipalayam - Avinashi rd
3210,3A,11,RMS Office
3211,3A,12,Marakkadai
3212,3A,13,Town Hall
3213,3A,14,BigBazaar
3214,3A,15,Ukkadam
3215,3A,16,Karumbukkadai - Ukkadam
3216,3A,17,Aathupalam/L&T tollbooth
3217,3A,18,Kuniamuthur
3218,3A,19,Edayarpalayam - Palghat rd
3219,3A,20,Kovaipudur Pirivu
3220,3A,21,Mailkal - Madukkarai
3221,3A,22,Madukkarai
sno,route_id,stop_id,stop_name
3222,3B,1,Saibaba Kovil
3223,3B,2,Murugan mills - MTP rd
3224,3B,3,Muthu theatre - MTP rd
3225,3B,4,TVS - MTP rd
3226,3B,5,North Coimbatore/Vadakovai
3227,3B,6,Flower Market
3228,3B,7,Marakkadai
3229,3B,8,Sukravarpettai
3230,3B,9,Town Hall
3231,3B,10,BigBazaar
3232,3B,11,Ukkadam
3233,3B,12,Karumbukkadai - Ukkadam
3234,3B,13,Aathupalam/L&T tollbooth
3235,3B,14,Kuniamuthur
3236,3B,15,Edayarpalayam - Palghat rd
3237,3B,16,Kovaipudur Pirivu
3238,3B,17,Mailkal - Madukkarai
3239,3B,18,Madukkarai
sno,route_id,stop_id,stop_name
3222,3B,1,Saibaba Kovil
3223,3B,2,Murugan mills - MTP rd
3224,3B,3,Muthu theatre - MTP rd
3225,3B,4,TVS - MTP rd
3226,3B,5,North Coimbatore/Vadakovai
3227,3B,6,Flower Market
3228,3B,7,Marakkadai
3229,3B,8,Sukravarpettai
3230,3B,9,Town Hall
3231,3B,10,BigBazaar
3232,3B,11,Ukkadam
3233,3B,12,Karumbukkadai - Ukkadam
3234,3B,13,Aathupalam/L&T tollbooth
3235,3B,14,Kuniamuthur
3236,3B,15,Edayarpalayam - Palghat rd
3237,3B,16,Kovaipudur Pirivu
3238,3B,17,Mailkal - Madukkarai
3239,3B,18,Madukkarai
sno,route_id,stop_id,stop_name
3240,3C,1,Ganapathy
3241,3C,2,Textool - Sathy rd
3242,3C,3,Lakshmi puram - Sathy rd
3243,3C,4,Omni bus stand
3244,3C,5,100 feet/GP
3245,3C,6,Gandhipuram
3246,3C,7,Alankar - Nanjappa rd
3247,3C,8,Park Gate - Nanjappa rd
3248,3C,9,VOC Park
3249,3C,10,Uppilipalayam - Avinashi rd
3250,3C,11,RMS Office
3251,3C,12,Marakkadai
3252,3C,13,Town Hall
3253,3C,14,BigBazaar
3254,3C,15,Ukkadam
3255,3C,16,Karumbukkadai - Ukkadam
3256,3C,17,Aathupalam/L&T tollbooth
3257,3C,18,Kuniamuthur
3258,3C,19,Edayarpalayam - Palghat rd
3259,3C,20,Kovaipudur Pirivu
3260,3C,21,Mailkal - Madukkarai
3261,3C,22,Madukkarai
3262,3C,23,Thirumalayampalayam
sno,route_id,stop_id,stop_name
3263,3D,1,Ganapathy
3264,3D,2,Textool - Sathy rd
3265,3D,3,Lakshmi puram - Sathy rd
3266,3D,4,100 feet/GP
3267,3D,5,Gandhipuram
3268,3D,6,Alankar - Nanjappa rd
3269,3D,7,Park Gate - Nanjappa rd
3270,3D,8,VOC Park
3271,3D,9,Uppilipalayam - Avinashi rd
3272,3D,10,RMS Office
3273,3D,11,Marakkadai
3274,3D,12,Town Hall
3275,3D,13,BigBazaar
3276,3D,14,Ukkadam
3277,3D,15,Karumbukkadai - Ukkadam
3278,3D,16,Aathupalam/L&T tollbooth
3279,3D,17,Kuniamuthur
3280,3D,18,Edayarpalayam - Palghat rd
3281,3D,19,Kovaipudur Pirivu
3282,3D,20,Kovaipudur
sno,route_id,stop_id,stop_name
3283,33E,1,Gandhipuram
3284,33E,2,Alankar - Nanjappa rd
3285,33E,3,Park Gate - Nanjappa rd
3286,33E,4,VOC Park
3287,33E,5,Uppilipalayam - Avinashi rd
3288,33E,6,Marakkadai
3289,33E,7,RMS Office
3290,33E,8,Town Hall
3291,33E,9,BigBazaar
3292,33E,10,Ukkadam
3293,33E,11,Karumbukkadai - Ukkadam
3294,33E,12,Aathupalam/L&T tollbooth
3295,33E,13,Kuniamuthur
3296,33E,14,Edayarpalayam - Palghat rd
3297,33E,15,Kovaipudur Pirivu
3298,33E,16,Mailkal - Madukkarai
3299,33E,17,Madukkarai
3300,33E,18,Thirumalayampalayam
sno,route_id,stop_id,stop_name
3301,3G,1,Housing Unit - Ganapathy
3302,3G,2,Bharathi nagar - Sathy rd
3303,3G,3,Athipalayam Pirivu - Sathy rd
3304,3G,4,CMS - Ganapathy
3305,3G,5,Ganapathy
3306,3G,6,Textool - Sathy rd
3307,3G,7,Lakshmi puram - Sathy rd
3308,3G,8,Omni bus stand
3309,3G,9,100 feet/GP
3310,3G,10,Gandhipuram
3311,3G,11,Alankar - Nanjappa rd
3312,3G,12,Park Gate - Nanjappa rd
3313,3G,13,VOC Park
3314,3G,14,Uppilipalayam - Avinashi rd
3315,3G,15,Marakkadai
3316,3G,16,RMS Office
3317,3G,17,Town Hall
3318,3G,18,BigBazaar
3319,3G,19,Ukkadam
3320,3G,20,Karumbukkadai - Ukkadam
3321,3G,21,Aathupalam/L&T tollbooth
3322,3G,22,Kuniamuthur
3323,3G,23,Edayarpalayam - Palghat rd
3324,3G,24,Kovaipudur Pirivu
3325,3G,25,Mailkal - Madukkarai
3326,3G,26,Madukkarai
3327,3G,27,Ettimadai
3328,3G,28,KG Chavadi - Palghat rd
sno,route_id,stop_id,stop_name
3329,3H,1,CheranMaNagar
3330,3H,2,Housing Unit - Ganapathy
3331,3H,3,Bharathi nagar - Sathy rd
3332,3H,4,Athipalayam Pirivu - Sathy rd
3333,3H,5,CMS - Ganapathy
3334,3H,6,Ganapathy
3335,3H,7,Textool - Sathy rd
3336,3H,8,Lakshmi puram - Sathy rd
3337,3H,9,Omni bus stand
3338,3H,10,100 feet/GP
3339,3H,11,Gandhipuram
3340,3H,12,Alankar - Nanjappa rd
3341,3H,13,Park Gate - Nanjappa rd
3342,3H,14,VOC Park
3343,3H,15,Uppilipalayam - Avinashi rd
3344,3H,16,Marakkadai
3345,3H,17,RMS Office
3346,3H,18,Town Hall
3347,3H,19,BigBazaar
3348,3H,20,Ukkadam
3349,3H,21,Karumbukkadai - Ukkadam
3350,3H,22,Aathupalam/L&T tollbooth
3351,3H,23,Kuniamuthur
3352,3H,24,Edayarpalayam - Palghat rd
3353,3H,25,Kovaipudur Pirivu
3354,3H,26,Kovaipudur
sno,route_id,stop_id,stop_name
3355,3M,1,Ganapathy Managar
3356,3M,2,Bharathi nagar - Sathy rd
3357,3M,3,Athipalayam Pirivu - Sathy rd
3358,3M,4,CMS - Ganapathy
3359,3M,5,Ganapathy
3360,3M,6,Textool - Sathy rd
3361,3M,7,Lakshmi puram - Sathy rd
3362,3M,8,Omni bus stand
3363,3M,9,100 feet/GP
3364,3M,10,Gandhipuram
3365,3M,11,Alankar - Nanjappa rd
3366,3M,12,Park Gate - Nanjappa rd
3367,3M,13,VOC Park
3368,3M,14,Uppilipalayam - Avinashi rd
3369,3M,15,Marakkadai
3370,3M,16,RMS Office
3371,3M,17,Town Hall
3372,3M,18,BigBazaar
3373,3M,19,Ukkadam
3374,3M,20,Karumbukkadai - Ukkadam
3375,3M,21,Aathupalam/L&T tollbooth
3376,3M,22,Kuniamuthur
3377,3M,23,Edayarpalayam - Palghat rd
3378,3M,24,Kovaipudur Pirivu
3379,3M,25,Kovaipudur
sno,route_id,stop_id,stop_name
3380,3N,1,Sanganoor
3381,3N,2,Textool - Sathy rd
3382,3N,3,Lakshmi puram - Sathy rd
3383,3N,4,Omni bus stand
3384,3N,5,100 feet/GP
3385,3N,6,Gandhipuram
3386,3N,7,Alankar - Nanjappa rd
3387,3N,8,Park Gate - Nanjappa rd
3388,3N,9,VOC Park
3389,3N,10,Uppilipalayam - Avinashi rd
3390,3N,11,Marakkadai
3391,3N,12,RMS Office
3392,3N,13,Town Hall
3393,3N,14,BigBazaar
3394,3N,15,Ukkadam
3395,3N,16,Karumbukkadai - Ukkadam
3396,3N,17,Aathupalam/L&T tollbooth
3397,3N,18,Kuniamuthur
3398,3N,19,Edayarpalayam - Palghat rd
3399,3N,20,Kovaipudur Pirivu
3400,3N,21,Kovaipudur
sno,route_id,stop_id,stop_name
3401,3R,1,Saibaba Kovil
3402,3R,2,Sivanandha Colony
3403,3R,3,Power House
3404,3R,4,Karpagam Complex - 100ft
3405,3R,5,Kalyan - 100ft rd
3406,3R,6,100 feet/GP
3407,3R,7,Gandhipuram
3408,3R,8,Alankar - Nanjappa rd
3409,3R,9,Park Gate - Nanjappa rd
3410,3R,10,VOC Park
3411,3R,11,Uppilipalayam - Avinashi rd
3412,3R,12,Marakkadai
3413,3R,13,RMS Office
3414,3R,14,Town Hall
3415,3R,15,BigBazaar
3416,3R,16,Ukkadam
3417,3R,17,Karumbukkadai - Ukkadam
3418,3R,18,Aathupalam/L&T tollbooth
3419,3R,19,Kuniamuthur
3420,3R,20,Edayarpalayam - Palghat rd
3421,3R,21,Kovaipudur Pirivu
3422,3R,22,Kovaipudur
sno,route_id,stop_id,stop_name
3423,3S,1,Saibaba Kovil
3424,3S,2,Murugan mills - MTP rd
3425,3S,3,Muthu theatre - MTP rd
3426,3S,4,TVS - MTP rd
3427,3S,5,North Coimbatore/Vadakovai
3428,3S,6,Flower Market
3429,3S,7,Marakkadai
3430,3S,8,Sukravarpettai
3431,3S,9,Town Hall
3432,3S,10,BigBazaar
3433,3S,11,Ukkadam
3434,3S,12,Karumbukkadai - Ukkadam
3435,3S,13,Aathupalam/L&T tollbooth
3436,3S,14,Kuniamuthur
3437,3S,15,Edayarpalayam - Palghat rd
3438,3S,16,Kovaipudur Pirivu
3439,3S,17,Mailkal - Madukkarai
3440,3S,18,Madukkarai
3441,3S,19,Rottigoundanur - Madukkarai
sno,route_id,stop_id,stop_name
3442,3T,1,Kavundampalayam
3443,3T,2,Housing unit - Kovundampalayam
3444,3T,3,Eru Company - MTP rd
3445,3T,4,Saibaba Kovil
3446,3T,5,Murugan mills - MTP rd
3447,3T,6,Muthu theatre - MTP rd
3448,3T,7,TVS - MTP rd
3449,3T,8,North Coimbatore/Vadakovai
3450,3T,9,Flower Market
3451,3T,10,Sukravarpettai
3452,3T,11,Marakkadai
3453,3T,12,Town Hall
3454,3T,13,BigBazaar
3455,3T,14,Ukkadam
3456,3T,15,Karumbukkadai - Ukkadam
3457,3T,16,Aathupalam/L&T tollbooth
3458,3T,17,Kuniamuthur
3459,3T,18,Edayarpalayam - Palghat rd
3460,3T,19,Kovaipudur Pirivu
3461,3T,20,Kovaipudur
sno,route_id,stop_id,stop_name
3462,4,1,Podhanur
3463,4,2,Aathupalam/L&T tollbooth
3464,4,3,Karumbukkadai - Ukkadam
3465,4,4,Ukkadam
3466,4,5,BigBazaar
3467,4,6,Town Hall
3468,4,7,Marakkadai
3469,4,8,Sukravarpettai
3470,4,9,Flower Market
3471,4,10,North Coimbatore/Vadakovai
3472,4,11,TVS - MTP rd
3473,4,12,Muthu theatre - MTP rd
3474,4,13,Murugan mills - MTP rd
3475,4,14,Saibaba Kovil
3476,4,15,Eru Company - MTP rd
3477,4,16,Housing unit - Kovundampalayam
3478,4,17,Kavundampalayam
3479,4,18,Cheran Nagar - MTP rd
3480,4,19,ITI - MTP rd
3481,4,20,GN mills - MTP rd
3482,4,21,Vellakinar Pirivu - MTP rd
3483,4,22,Thudiyalur
sno,route_id,stop_id,stop_name
3484,40,1,GCT - Thadagam rd
3485,40,2,Venkittapuram
3486,40,3,Saibaba Colony
3487,40,4,Puliamaram stop - NSR rd
3488,40,5,Saibaba Kovil
3489,40,6,Murugan mills - MTP rd
3490,40,7,Muthu theatre - MTP rd
3491,40,8,TVS - MTP rd
3492,40,9,Power House
3493,40,10,Karpagam Complex - 100ft
3494,40,11,Kalyan - 100ft rd
3495,40,12,100 feet/GP
3496,40,13,Gandhipuram
3497,40,14,Womens Polytechnic
3498,40,15,Mani School/GKNM Hospl
3499,40,16,Lakshmi Mills Junction
3500,40,17,Nava India - Avinashi rd
3501,40,18,Suguna Kalyana Mandapam
3502,40,19,PSG Tech - Peelamedu
3503,40,20,PSG Krishnammal
3504,40,21,Varatharaja Mills
3505,40,22,Hope College
3506,40,23,CMC - Avinashi rd
3507,40,24,CIT - CODISSIA
3508,40,25,Polytechnic - Avinashi rd
3509,40,26,PSG Arts
3510,40,27,SITRA/Airport
3511,40,28,KMCH - Avinashi rd
3512,40,29,Goldwins
3513,40,30,Thottipalayam Pirivu
sno,route_id,stop_id,stop_name
3514,40A,1,Gandhipuram
3515,40A,2,Womens Polytechnic
3516,40A,3,Mani School/GKNM Hospl
3517,40A,4,Lakshmi Mills Junction
3518,40A,5,Nava India - Avinashi rd
3519,40A,6,Suguna Kalyana Mandapam
3520,40A,7,PSG Tech - Peelamedu
3521,40A,8,PSG Krishnammal
3522,40A,9,Varatharaja Mills
3523,40A,10,Hope College
3524,40A,11,CMC - Avinashi rd
3525,40A,12,CIT - CODISSIA
3526,40A,13,Polytechnic - Avinashi rd
3527,40A,14,PSG Arts
3528,40A,15,SITRA/Airport
3529,40A,16,KMCH - Avinashi rd
3530,40A,17,Goldwins
3531,40A,18,Thottipalayam Pirivu
3532,40A,19,Rangasamy Goundan pudur
3533,40A,20,Chinniyampalayam
3534,40A,21,Neelambur
3535,40A,22,Arasur - Avinashi road
3536,40A,23,Kaniyur
3537,40A,24,Karumathampatti
3538,40A,25,Somanur
sno,route_id,stop_id,stop_name
3539,40B,1,Gandhipuram
3540,40B,2,Womens Polytechnic
3541,40B,3,Mani School/GKNM Hospl
3542,40B,4,Lakshmi Mills Junction
3543,40B,5,Nava India - Avinashi rd
3544,40B,6,Suguna Kalyana Mandapam
3545,40B,7,PSG Tech - Peelamedu
3546,40B,8,PSG Krishnammal
3547,40B,9,Varatharaja Mills
3548,40B,10,Hope College
3549,40B,11,CMC - Avinashi rd
3550,40B,12,CIT - CODISSIA
3551,40B,13,Polytechnic - Avinashi rd
3552,40B,14,PSG Arts
3553,40B,15,SITRA/Airport
3554,40B,16,KMCH - Avinashi rd
3555,40B,17,Goldwins
3556,40B,18,Thottipalayam Pirivu
3557,40B,19,Rangasamy Goundan pudur
3558,40B,20,Chinniyampalayam
3559,40B,21,Neelambur
sno,route_id,stop_id,stop_name
3560,41A,1,Gandhipuram
3561,41A,2,Womens Polytechnic
3562,41A,3,Mani School/GKNM Hospl
3563,41A,4,Lakshmi Mills Junction
3564,41A,5,Nava India - Avinashi rd
3565,41A,6,Suguna Kalyana Mandapam
3566,41A,7,PSG Tech - Peelamedu
3567,41A,8,PSG Krishnammal
3568,41A,9,Varatharaja Mills
3569,41A,10,Hope College
3570,41A,11,CMC - Avinashi rd
3571,41A,12,CIT - CODISSIA
3572,41A,13,Polytechnic - Avinashi rd
3573,41A,14,PSG Arts
3574,41A,15,SITRA/Airport
3575,41A,16,KMCH - Avinashi rd
3576,41A,17,Goldwins
3577,41A,18,Thottipalayam Pirivu
3578,41A,19,Rangasamy Goundan pudur
3579,41A,20,Chinniyampalayam
3580,41A,21,Neelambur
3581,41A,22,Sulur
3582,41A,23,Kalangal - Sulur
sno,route_id,stop_id,stop_name
3583,41B,1,Gandhipuram
3584,41B,2,Womens Polytechnic
3585,41B,3,Mani School/GKNM Hospl
3586,41B,4,Lakshmi Mills Junction
3587,41B,5,Nava India - Avinashi rd
3588,41B,6,Suguna Kalyana Mandapam
3589,41B,7,PSG Tech - Peelamedu
3590,41B,8,PSG Krishnammal
3591,41B,9,Varatharaja Mills
3592,41B,10,Hope College
3593,41B,11,CMC - Avinashi rd
3594,41B,12,CIT - CODISSIA
3595,41B,13,Polytechnic - Avinashi rd
3596,41B,14,PSG Arts
3597,41B,15,SITRA/Airport
3598,41B,16,KMCH - Avinashi rd
3599,41B,17,Goldwins
3600,41B,18,Thottipalayam Pirivu
3601,41B,19,Rangasamy Goundan pudur
3602,41B,20,Chinniyampalayam
3603,41B,21,Neelambur
sno,route_id,stop_id,stop_name
3604,41C,1,Ukkadam
3605,41C,2,BigBazaar
3606,41C,3,Town Hall
3607,41C,4,Government Hospital
3608,41C,5,Railway Station
3609,41C,6,Collectorate/DSP
3610,41C,7,Uppilipalayam - Avinashi rd
3611,41C,8,VOC Park
3612,41C,9,Anna Statue - Avinashi rd
3613,41C,10,Residency
3614,41C,11,Lakshmi Mills Junction
3615,41C,12,Nava India - Avinashi rd
3616,41C,13,Suguna Kalyana Mandapam
3617,41C,14,PSG Tech - Peelamedu
3618,41C,15,PSG Krishnammal
3619,41C,16,Varatharaja Mills
3620,41C,17,Hope College
3621,41C,18,CMC - Avinashi rd
3622,41C,19,CIT - CODISSIA
3623,41C,20,Polytechnic - Avinashi rd
3624,41C,21,PSG Arts
3625,41C,22,SITRA/Airport
3626,41C,23,KMCH - Avinashi rd
3627,41C,24,Goldwins
3628,41C,25,Thottipalayam Pirivu
3629,41C,26,Rangasamy Goundan pudur
3630,41C,27,Chinniyampalayam
3631,41C,28,Neelambur
3632,41C,29,Arasur - Avinashi road
3633,41C,30,Kaniyur
3634,41C,31,Karumathampatti
sno,route_id,stop_id,stop_name
3635,41D,1,Gandhipuram
3636,41D,2,Womens Polytechnic
3637,41D,3,Mani School/GKNM Hospl
3638,41D,4,Lakshmi Mills Junction
3639,41D,5,Nava India - Avinashi rd
3640,41D,6,Suguna Kalyana Mandapam
3641,41D,7,PSG Tech - Peelamedu
3642,41D,8,PSG Krishnammal
3643,41D,9,Varatharaja Mills
3644,41D,10,Hope College
3645,41D,11,CMC - Avinashi rd
3646,41D,12,CIT - CODISSIA
3647,41D,13,Polytechnic - Avinashi rd
3648,41D,14,PSG Arts
3649,41D,15,SITRA/Airport
3650,41D,16,KMCH - Avinashi rd
3651,41D,17,Goldwins
3652,41D,18,Thottipalayam Pirivu
3653,41D,19,Rangasamy Goundan pudur
3654,41D,20,Chinniyampalayam
3655,41D,21,Neelambur
3656,41D,22,Sulur
sno,route_id,stop_id,stop_name
3657,41F,1,Gandhipuram
3658,41F,2,Womens Polytechnic
3659,41F,3,Mani School/GKNM Hospl
3660,41F,4,Lakshmi Mills Junction
3661,41F,5,Nava India - Avinashi rd
3662,41F,6,Suguna Kalyana Mandapam
3663,41F,7,PSG Tech - Peelamedu
3664,41F,8,PSG Krishnammal
3665,41F,9,Varatharaja Mills
3666,41F,10,Hope College
3667,41F,11,CMC - Avinashi rd
3668,41F,12,CIT - CODISSIA
3669,41F,13,Polytechnic - Avinashi rd
3670,41F,14,PSG Arts
3671,41F,15,SITRA/Airport
3672,41F,16,KMCH - Avinashi rd
3673,41F,17,Goldwins
3674,41F,18,Thottipalayam Pirivu
3675,41F,19,Rangasamy Goundan pudur
3676,41F,20,Chinniyampalayam
3677,41F,21,Neelambur
3678,41F,22,Sulur
3679,41F,23,Kalangal - Sulur
3680,41F,24,Appanaickenpatti
sno,route_id,stop_id,stop_name
3681,42A,1,Ukkadam
3682,42A,2,BigBazaar
3683,42A,3,Town Hall
3684,42A,4,Government Hospital
3685,42A,5,Rainbow - Trichy rd
3686,42A,6,Sreepathi/Kannan
3687,42A,7,Sungam
3688,42A,8,Olympus - Ramanathapuram
3689,42A,9,Ramanathapuram
3690,42A,10,Sowripalayam Pirivu
3691,42A,11,Iyer Hospital - Trichy rd
3692,42A,12,Central studio - SInganallur
3693,42A,13,Rajalakshmi mills/PERKS
3694,42A,14,Boat House - Singanallur
3695,42A,15,Housing Unit - Singanallur
3696,42A,16,Singanallur
3697,42A,17,Vasantha mills - Singanallur
3698,42A,18,Jai Shanthi - Singanallur
3699,42A,19,Ondipudur
3700,42A,20,Irugur Pirivu
3701,42A,21,Irugur
3702,42A,22,Neelambur
sno,route_id,stop_id,stop_name
3703,43,1,Neelikonampalayam
3704,43,2,Vasantha mills - Singanallur
3705,43,3,Singanallur
3706,43,4,Housing Unit - Singanallur
3707,43,5,Boat House - Singanallur
3708,43,6,Rajalakshmi mills/PERKS
3709,43,7,Central studio - SInganallur
3710,43,8,Iyer Hospital - Trichy rd
3711,43,9,Sowripalayam Pirivu
3712,43,10,Ramanathapuram
3713,43,11,Olympus - Ramanathapuram
3714,43,12,Sungam
3715,43,13,Sreepathi/Kannan
3716,43,14,Rainbow - Trichy rd
3717,43,15,Government Hospital
3718,43,16,Town Hall
3719,43,17,Sukravarpettai
3720,43,18,Marakkadai
3721,43,19,Flower Market
3722,43,20,North Coimbatore/Vadakovai
3723,43,21,TVS - MTP rd
3724,43,22,Muthu theatre - MTP rd
3725,43,23,Murugan mills - MTP rd
3726,43,24,Saibaba Kovil
3727,43,25,Puliamaram stop - NSR rd
3728,43,26,Saibaba Colony
3729,43,27,Venkittapuram
3730,43,28,GCT - Thadagam rd
sno,route_id,stop_id,stop_name
3731,43A,1,Neelikonampalayam
3732,43A,2,Vasantha mills - Singanallur
3733,43A,3,Singanallur
3734,43A,4,Housing Unit - Singanallur
3735,43A,5,Boat House - Singanallur
3736,43A,6,Rajalakshmi mills/PERKS
3737,43A,7,Central studio - SInganallur
3738,43A,8,Iyer Hospital - Trichy rd
3739,43A,9,Sowripalayam Pirivu
3740,43A,10,Ramanathapuram
3741,43A,11,Olympus - Ramanathapuram
3742,43A,12,Sungam
3743,43A,13,Sreepathi/Kannan
3744,43A,14,Rainbow - Trichy rd
3745,43A,15,Government Hospital
3746,43A,16,Railway Station
3747,43A,17,Collectorate/DSP
3748,43A,18,Uppilipalayam - Avinashi rd
3749,43A,19,VOC Park
3750,43A,20,Park Gate - Nanjappa rd
3751,43A,21,Alankar - Nanjappa rd
3752,43A,22,Gandhipuram
3753,43A,23,100 feet/GP
3754,43A,24,Omni bus stand
3755,43A,25,Lakshmi puram - Sathy rd
3756,43A,26,Textool - Sathy rd
3757,43A,27,Sanganoor
sno,route_id,stop_id,stop_name
3758,45,1,Ukkadam
3759,45,2,BigBazaar
3760,45,3,Town Hall
3761,45,4,Government Hospital
3762,45,5,Railway Station
3763,45,6,Collectorate/DSP
3764,45,7,Uppilipalayam - Avinashi rd
3765,45,8,VOC Park
3766,45,9,Park Gate - Nanjappa rd
3767,45,10,Alankar - Nanjappa rd
3768,45,11,Gandhipuram
3769,45,12,100 feet/GP
3770,45,13,Omni bus stand
3771,45,14,Lakshmi puram - Sathy rd
3772,45,15,Textool - Sathy rd
3773,45,16,Ganapathy
3774,45,17,CMS - Ganapathy
3775,45,18,Athipalayam Pirivu - Sathy rd
3776,45,19,Bharathi nagar - Sathy rd
3777,45,20,Ramakrishna mill - Sathy rd
3778,45,21,Sivanandha mill - Sathy rd
3779,45,22,SRP mill - Sathy rd
3780,45,23,Amman kovil - Saravanampatti
3781,45,24,Kalappatti Pirivu - Sathy rd
3782,45,25,Saravanampatti
3783,45,26,Visuwasapuram/Sahara City
3784,45,27,SNS Institutions - Sathy rd
3785,45,28,Kurumbapalayam - Sathy rd
3786,45,29,Kovilpalayam - Sathy rd
3787,45,30,Kottaipalayam
3788,45,31,Vellamadai
sno,route_id,stop_id,stop_name
3789,45A,1,Gandhipuram
3790,45A,2,100 feet/GP
3791,45A,3,Omni bus stand
3792,45A,4,Lakshmi puram - Sathy rd
3793,45A,5,Textool - Sathy rd
3794,45A,6,Ganapathy
3795,45A,7,CMS - Ganapathy
3796,45A,8,Athipalayam Pirivu - Sathy rd
3797,45A,9,Bharathi nagar - Sathy rd
3798,45A,10,Ramakrishna mill - Sathy rd
3799,45A,11,Sivanandha mill - Sathy rd
3800,45A,12,SRP mill - Sathy rd
3801,45A,13,Amman kovil - Saravanampatti
3802,45A,14,Kalappatti Pirivu - Sathy rd
3803,45A,15,Saravanampatti
3804,45A,16,Visuwasapuram/Sahara City
3805,45A,17,SNS Institutions - Sathy rd
3806,45A,18,Kurumbapalayam - Sathy rd
3807,45A,19,Kovilpalayam - Sathy rd
3808,45A,20,Kunnathur - Sathy rd
3809,45A,21,Ganesapuram - Sathy rd
sno,route_id,stop_id,stop_name
3810,45B,1,Gandhipuram
3811,45B,2,100 feet/GP
3812,45B,3,Omni bus stand
3813,45B,4,Lakshmi puram - Sathy rd
3814,45B,5,Textool - Sathy rd
3815,45B,6,Ganapathy
3816,45B,7,CMS - Ganapathy
3817,45B,8,Athipalayam Pirivu - Sathy rd
3818,45B,9,Bharathi nagar - Sathy rd
3819,45B,10,Ramakrishna mill - Sathy rd
3820,45B,11,Sivanandha mill - Sathy rd
3821,45B,12,SRP mill - Sathy rd
3822,45B,13,Amman kovil - Saravanampatti
3823,45B,14,Kalappatti Pirivu - Sathy rd
3824,45B,15,Saravanampatti
3825,45B,16,Visuwasapuram/Sahara City
3826,45B,17,SNS Institutions - Sathy rd
3827,45B,18,Kurumbapalayam - Sathy rd
3828,45B,19,Kovilpalayam - Sathy rd
3829,45B,20,Kunnathur - Sathy rd
3830,45B,21,Ganesapuram - Sathy rd
3831,45B,22,Telungupalayam Pirivu - Annur
3832,45B,23,Ganesapuram - Sathy rd
3833,45B,24,Telungupalayam Pirivu - Annur
3834,45B,25,KG mill/school - Annur
3835,45B,26,Annur
sno,route_id,stop_id,stop_name
3836,45C,1,Gandhipuram
3837,45C,2,100 feet/GP
3838,45C,3,Omni bus stand
3839,45C,4,Lakshmi puram - Sathy rd
3840,45C,5,Textool - Sathy rd
3841,45C,6,Ganapathy
3842,45C,7,CMS - Ganapathy
3843,45C,8,Athipalayam Pirivu - Sathy rd
3844,45C,9,Bharathi nagar - Sathy rd
3845,45C,10,Ramakrishna mill - Sathy rd
3846,45C,11,Sivanandha mill - Sathy rd
3847,45C,12,SRP mill - Sathy rd
3848,45C,13,Amman kovil - Saravanampatti
3849,45C,14,Kalappatti Pirivu - Sathy rd
3850,45C,15,Saravanampatti
3851,45C,16,Visuwasapuram/Sahara City
3852,45C,17,SNS Institutions - Sathy rd
3853,45C,18,Kurumbapalayam - Sathy rd
3854,45C,19,Kovilpalayam - Sathy rd
3855,45C,20,Kunnathur - Sathy rd
3856,45C,21,Ganesapuram - Sathy rd
3857,45C,22,Telungupalayam Pirivu - Annur
3858,45C,23,KG mill/school - Annur
3859,45C,24,Annur
sno,route_id,stop_id,stop_name
3860,45D,1,Gandhipuram
3861,45D,2,100 feet/GP
3862,45D,3,Omni bus stand
3863,45D,4,Lakshmi puram - Sathy rd
3864,45D,5,Textool - Sathy rd
3865,45D,6,Ganapathy
3866,45D,7,CMS - Ganapathy
3867,45D,8,Athipalayam Pirivu - Sathy rd
3868,45D,9,Bharathi nagar - Sathy rd
3869,45D,10,Ramakrishna mill - Sathy rd
3870,45D,11,Sivanandha mill - Sathy rd
3871,45D,12,SRP mill - Sathy rd
3872,45D,13,Amman kovil - Saravanampatti
3873,45D,14,Kalappatti Pirivu - Sathy rd
3874,45D,15,Saravanampatti
3875,45D,16,Visuwasapuram/Sahara City
3876,45D,17,SNS Institutions - Sathy rd
3877,45D,18,Kurumbapalayam - Sathy rd
3878,45D,19,Kovilpalayam - Sathy rd
3879,45D,20,Kunnathur - Sathy rd
3880,45D,21,Ganesapuram - Sathy rd
3881,45D,22,Telungupalayam Pirivu - Annur
3882,45D,23,KG mill/school - Annur
3883,45D,24,Annur
sno,route_id,stop_id,stop_name
3884,45E,1,Gandhipuram
3885,45E,2,100 feet/GP
3886,45E,3,Omni bus stand
3887,45E,4,Lakshmi puram - Sathy rd
3888,45E,5,Textool - Sathy rd
3889,45E,6,Ganapathy
3890,45E,7,CMS - Ganapathy
3891,45E,8,Athipalayam Pirivu - Sathy rd
3892,45E,9,Bharathi nagar - Sathy rd
3893,45E,10,Ramakrishna mill - Sathy rd
3894,45E,11,Sivanandha mill - Sathy rd
3895,45E,12,SRP mill - Sathy rd
3896,45E,13,Amman kovil - Saravanampatti
3897,45E,14,Kalappatti Pirivu - Sathy rd
3898,45E,15,Saravanampatti
3899,45E,16,Visuwasapuram/Sahara City
3900,45E,17,SNS Institutions - Sathy rd
3901,45E,18,Kurumbapalayam - Sathy rd
3902,45E,19,Kovilpalayam - Sathy rd
3903,45E,20,Kunnathur - Sathy rd
3904,45E,21,Ganesapuram - Sathy rd
3905,45E,22,Telungupalayam Pirivu - Annur
3906,45E,23,KG mill/school - Annur
3907,45E,24,Annur
sno,route_id,stop_id,stop_name
3908,48,1,Gandhipuram
3909,48,2,Alankar - Nanjappa rd
3910,48,3,Park Gate - Nanjappa rd
3911,48,4,VOC Park
3912,48,5,Uppilipalayam - Avinashi rd
3913,48,6,Marakkadai
3914,48,7,RMS Office
3915,48,8,Town Hall
3916,48,9,BigBazaar
3917,48,10,Ukkadam
3918,48,11,Karumbukkadai - Ukkadam
3919,48,12,Aathupalam/L&T tollbooth
3920,48,13,Kuniamuthur
3921,48,14,Edayarpalayam - Palghat rd
3922,48,15,Kovaipudur Pirivu
3923,48,16,Mailkal - Madukkarai
3924,48,17,Madukkarai
3925,48,18,Ettimadai
3926,48,19,KG Chavadi - Palghat rd
3927,48,20,Velanthavalam
sno,route_id,stop_id,stop_name
3928,48A,1,Gandhipuram
3929,48A,2,Alankar - Nanjappa rd
3930,48A,3,Park Gate - Nanjappa rd
3931,48A,4,VOC Park
3932,48A,5,Uppilipalayam - Avinashi rd
3933,48A,6,Marakkadai
3934,48A,7,RMS Office
3935,48A,8,Town Hall
3936,48A,9,BigBazaar
3937,48A,10,Ukkadam
3938,48A,11,Karumbukkadai - Ukkadam
3939,48A,12,Aathupalam/L&T tollbooth
3940,48A,13,Kurichi
3941,48A,14,Sundharapuram
3942,48A,15,Housing Unit - Kurichi
3943,48A,16,Palathurai
3944,48A,17,Velanthavalam
sno,route_id,stop_id,stop_name
3945,48B,1,Gandhipuram
3946,48B,2,Alankar - Nanjappa rd
3947,48B,3,Park Gate - Nanjappa rd
3948,48B,4,VOC Park
3949,48B,5,Uppilipalayam - Avinashi rd
3950,48B,6,Marakkadai
3951,48B,7,RMS Office
3952,48B,8,Town Hall
3953,48B,9,BigBazaar
3954,48B,10,Ukkadam
3955,48B,11,Karumbukkadai - Ukkadam
3956,48B,12,Aathupalam/L&T tollbooth
3957,48B,13,Kuniamuthur
3958,48B,14,Edayarpalayam - Palghat rd
3959,48B,15,Kovaipudur Pirivu
3960,48B,16,Mailkal - Madukkarai
3961,48B,17,Madukkarai
3962,48B,18,Ettimadai
3963,48B,19,KG Chavadi - Palghat rd
sno,route_id,stop_id,stop_name
3964,4A,1,Podhanur
3965,4A,2,Aathupalam/L&T tollbooth
3966,4A,3,Karumbukkadai - Ukkadam
3967,4A,4,Ukkadam
3968,4A,5,BigBazaar
3969,4A,6,Town Hall
3970,4A,7,Marakkadai
3971,4A,8,Sukravarpettai
3972,4A,9,Flower Market
3973,4A,10,North Coimbatore/Vadakovai
3974,4A,11,TVS - MTP rd
3975,4A,12,Muthu theatre - MTP rd
3976,4A,13,Murugan mills - MTP rd
3977,4A,14,Saibaba Kovil
3978,4A,15,Eru Company - MTP rd
3979,4A,16,Housing unit - Kovundampalayam
3980,4A,17,Kavundampalayam
3981,4A,18,Cheran Nagar - MTP rd
3982,4A,19,ITI - MTP rd
3983,4A,20,GN mills - MTP rd
3984,4A,21,Vellakinar Pirivu - MTP rd
3985,4A,22,Thudiyalur
3986,4A,23,Vadamadurai
3987,4A,24,NGGO Colony
3988,4A,25,Kumaran mill - MTP rd
3989,4A,26,Narasimmanaicken palayam
sno,route_id,stop_id,stop_name
3990,4B,1,Ukkadam
3991,4B,2,BigBazaar
3992,4B,3,Town Hall
3993,4B,4,Marakkadai
3994,4B,5,Sukravarpettai
3995,4B,6,Flower Market
3996,4B,7,North Coimbatore/Vadakovai
3997,4B,8,TVS - MTP rd
3998,4B,9,Muthu theatre - MTP rd
3999,4B,10,Murugan mills - MTP rd
4000,4B,11,Saibaba Kovil
4001,4B,12,Eru Company - MTP rd
4002,4B,13,Housing unit - Kovundampalayam
4003,4B,14,Kavundampalayam
4004,4B,15,Cheran Nagar - MTP rd
4005,4B,16,ITI - MTP rd
4006,4B,17,GN mills - MTP rd
4007,4B,18,Vellakinar Pirivu - MTP rd
4008,4B,19,Thudiyalur
4009,4B,20,Vadamadurai
4010,4B,21,NGGO Colony
4011,4B,22,Kumaran mill - MTP rd
4012,4B,23,Narasimmanaicken palayam
4013,4B,24,Ramnarayana mill - MTP rd
4014,4B,25,LMW - MTP rd
4015,4B,26,Periyanaickenpalayam
4016,4B,27,Pricol - MTP rd
4017,4B,28,Jothipuram
4018,4B,29,Veerapandi Pirivu - MTP rd
4019,4B,30,Press Colony - MTP rd
sno,route_id,stop_id,stop_name
4020,4C,1,Podhanur
4021,4C,2,Aathupalam/L&T tollbooth
4022,4C,3,Karumbukkadai - Ukkadam
4023,4C,4,Ukkadam
4024,4C,5,BigBazaar
4025,4C,6,Town Hall
4026,4C,7,Marakkadai
4027,4C,8,Sukravarpettai
4028,4C,9,Flower Market
4029,4C,10,North Coimbatore/Vadakovai
4030,4C,11,TVS - MTP rd
4031,4C,12,Muthu theatre - MTP rd
4032,4C,13,Murugan mills - MTP rd
4033,4C,14,Saibaba Kovil
4034,4C,15,Puliamaram stop - NSR rd
4035,4C,16,Saibaba Colony
4036,4C,17,Venkittapuram
4037,4C,18,Velandipalayam
4038,4C,19,Kovilmedu
sno,route_id,stop_id,stop_name
4039,4D,1,Ukkadam
4040,4D,2,BigBazaar
4041,4D,3,Town Hall
4042,4D,4,Marakkadai
4043,4D,5,Sukravarpettai
4044,4D,6,Flower Market
4045,4D,7,North Coimbatore/Vadakovai
4046,4D,8,TVS - MTP rd
4047,4D,9,Muthu theatre - MTP rd
4048,4D,10,Murugan mills - MTP rd
4049,4D,11,Saibaba Kovil
4050,4D,12,Eru Company - MTP rd
4051,4D,13,Housing unit - Kovundampalayam
4052,4D,14,Kavundampalayam
4053,4D,15,Cheran Nagar - MTP rd
4054,4D,16,ITI - MTP rd
4055,4D,17,GN mills - MTP rd
4056,4D,18,Vellakinar Pirivu - MTP rd
4057,4D,19,Thudiyalur
4058,4D,20,Vadamadurai
4059,4D,21,NGGO Colony
4060,4D,22,Kumaran mill - MTP rd
4061,4D,23,Narasimmanaicken palayam
4062,4D,24,Ramnarayana mill - MTP rd
4063,4D,25,LMW - MTP rd
4064,4D,26,Periyanaickenpalayam
4065,4D,27,Pricol - MTP rd
4066,4D,28,Jothipuram
4067,4D,29,Veerapandi Pirivu - MTP rd
4068,4D,30,Press Colony - MTP rd
sno,route_id,stop_id,stop_name
4069,4E,1,Ondipudur
4070,4E,2,Jai Shanthi - Singanallur
4071,4E,3,Vasantha mills - Singanallur
4072,4E,4,Singanallur
4073,4E,5,Housing Unit - Singanallur
4074,4E,6,Boat House - Singanallur
4075,4E,7,Rajalakshmi mills/PERKS
4076,4E,8,Central studio - Singanallur
4077,4E,9,Iyer Hospital - Trichy rd
4078,4E,10,Sowripalayam Pirivu
4079,4E,11,Ramanathapuram
4080,4E,12,Olympus - Ramanathapuram
4081,4E,13,Sungam
4082,4E,14,Sreepathi/Kannan
4083,4E,15,Rainbow - Trichy rd
4084,4E,16,Government Hospital
4085,4E,17,Town Hall
4086,4E,18,Sukravarpettai
4087,4E,19,Marakkadai
4088,4E,20,Flower Market
4089,4E,21,North Coimbatore/Vadakovai
4090,4E,22,TVS - MTP rd
4091,4E,23,Muthu theatre - MTP rd
4092,4E,24,Murugan mills - MTP rd
4093,4E,25,Saibaba Kovil
4094,4E,26,Eru Company - MTP rd
4095,4E,27,Housing unit - Kovundampalayam
4096,4E,28,Kavundampalayam
4097,4E,29,Cheran Nagar - MTP rd
4098,4E,30,ITI - MTP rd
4099,4E,31,GN mills - MTP rd
4100,4E,32,Vellakinar Pirivu - MTP rd
4101,4E,33,Thudiyalur
4102,4E,34,Vadamadurai
4103,4E,35,NGGO Colony
sno,route_id,stop_id,stop_name
4104,4H,1,Ukkadam
4105,4H,2,BigBazaar
4106,4H,3,Town Hall
4107,4H,4,Marakkadai
4108,4H,5,Sukravarpettai
4109,4H,6,Flower Market
4110,4H,7,North Coimbatore/Vadakovai
4111,4H,8,TVS - MTP rd
4112,4H,9,Muthu theatre - MTP rd
4113,4H,10,Murugan mills - MTP rd
4114,4H,11,Saibaba Kovil
4115,4H,12,Eru Company - MTP rd
4116,4H,13,Housing unit - Kovundampalayam
4117,4H,14,Kavundampalayam
4118,4H,15,Cheran Nagar - MTP rd
4119,4H,16,ITI - MTP rd
4120,4H,17,GN mills - MTP rd
4121,4H,18,Vellakinar Pirivu - MTP rd
4122,4H,19,Thudiyalur
4123,4H,20,Vadamadurai
4124,4H,21,NGGO Colony
sno,route_id,stop_id,stop_name
4125,4K,1,Periyanaickenpalayam
4126,4K,2,LMW - MTP rd
4127,4K,3,Ramnarayana mill - MTP rd
4128,4K,4,Narasimmanaicken palayam
4129,4K,5,Kumaran mill - MTP rd
4130,4K,6,NGGO Colony
4131,4K,7,Vadamadurai
4132,4K,8,Thudiyalur
4133,4K,9,Vellakinar Pirivu - MTP rd
4134,4K,10,GN mills - MTP rd
4135,4K,11,ITI - MTP rd
4136,4K,12,Cheran Nagar - MTP rd
4137,4K,13,Kavundampalayam
4138,4K,14,Housing unit - Kovundampalayam
4139,4K,15,Eru Company - MTP rd
4140,4K,16,Saibaba Kovil
4141,4K,17,Murugan mills - MTP rd
4142,4K,18,Muthu theatre - MTP rd
4143,4K,19,TVS - MTP rd
4144,4K,20,North Coimbatore/Vadakovai
4145,4K,21,Flower Market
4146,4K,22,Marakkadai
4147,4K,23,Sukravarpettai
4148,4K,24,Town Hall
4149,4K,25,Karuppagoundan st
4150,4K,26,Chetti veedhi - Perur rd
4151,4K,27,Shivalaya - Perur rd
4152,4K,28,Muthusamy Colony - Selvapuram
4153,4K,29,LIC Colony - Selvapuram
sno,route_id,stop_id,stop_name
4154,4M,1,Nanjundapuram
4155,4M,2,Podhanur
4156,4M,3,Aathupalam/L&T tollbooth
4157,4M,4,Karumbukkadai - Ukkadam
4158,4M,5,Ukkadam
4159,4M,6,BigBazaar
4160,4M,7,Town Hall
4161,4M,8,Marakkadai
4162,4M,9,Sukravarpettai
4163,4M,10,Flower Market
4164,4M,11,North Coimbatore/Vadakovai
4165,4M,12,TVS - MTP rd
4166,4M,13,Muthu theatre - MTP rd
4167,4M,14,Murugan mills - MTP rd
4168,4M,15,Saibaba Kovil
4169,4M,16,Eru Company - MTP rd
4170,4M,17,Housing unit - Kovundampalayam
4171,4M,18,Kavundampalayam
4172,4M,19,Cheran Nagar - MTP rd
4173,4M,20,ITI - MTP rd
4174,4M,21,GN mills - MTP rd
4175,4M,22,Vellakinar Pirivu - MTP rd
4176,4M,23,Thudiyalur
sno,route_id,stop_id,stop_name
4177,4N,1,Annanagar - Vadavalli rd
4178,4N,2,Edayarpalayam - Thadagam rd
4179,4N,3,Sivaji Colony - Thadagam rd
4180,4N,4,Kovilmedu
4181,4N,5,Velandipalayam
4182,4N,6,Venkittapuram
4183,4N,7,Saibaba Colony
4184,4N,8,Puliamaram stop - NSR rd
4185,4N,9,Saibaba Kovil
4186,4N,10,Murugan mills - MTP rd
4187,4N,11,Muthu theatre - MTP rd
4188,4N,12,TVS - MTP rd
4189,4N,13,North Coimbatore/Vadakovai
4190,4N,14,Flower Market
4191,4N,15,Marakkadai
4192,4N,16,Sukravarpettai
4193,4N,17,Town Hall
4194,4N,18,BigBazaar
4195,4N,19,Ukkadam
4196,4N,20,Karumbukkadai - Ukkadam
4197,4N,21,Aathupalam/L&T tollbooth
4198,4N,22,Kurichi
4199,4N,23,Sundharapuram
4200,4N,24,Housing Unit - Kurichi
sno,route_id,stop_id,stop_name
4201,S9D,1,Ondipudur
4202,S9D,2,Jai Shanthi - Singanallur
4203,S9D,3,Vasantha mills - Singanallur
4204,S9D,4,Singanallur
4205,S9D,5,Varatharajapuram
4206,S9D,6,ESI - Singanallur
4207,S9D,7,LIONs - Singanallur
4208,S9D,8,Ramanuja Nagar
4209,S9D,9,Manis Theatre
4210,S9D,10,Hope College
4211,S9D,11,Varatharaja Mills
4212,S9D,12,PSG Krishnammal
4213,S9D,13,PSG Tech - Peelamedu
4214,S9D,14,Suguna Kalyana Mandapam
4215,S9D,15,Nava India - Avinashi rd
4216,S9D,16,Lakshmi Mills Junction
4217,S9D,17,Mani School/GKNM Hospl
4218,S9D,18,Womens Polytechnic
4219,S9D,19,Gandhipuram
4220,S9D,20,100 feet/GP
4221,S9D,21,Omni bus stand
4222,S9D,22,Lakshmi puram - Sathy rd
4223,S9D,23,Textool - Sathy rd
4224,S9D,24,Ganapathy
4225,S9D,25,CMS - Ganapathy
4226,S9D,26,Maniakaranpalayam
4227,S9D,27,Udayampalayam - Ganapathy
4228,S9D,28,Vellakinar
4229,S9D,29,Cheran Colony
4230,S9D,30,Thudiyalur
4231,S9D,31,Vadamadurai
4232,S9D,32,NGGO Colony
sno,route_id,stop_id,stop_name
4233,S9B,1,Ondipudur
4234,S9B,2,Jai Shanthi - Singanallur
4235,S9B,3,Vasantha mills - Singanallur
4236,S9B,4,Singanallur
4237,S9B,5,Varatharajapuram
4238,S9B,6,ESI - Singanallur
4239,S9B,7,LIONs - Singanallur
4240,S9B,8,Ramanuja Nagar
4241,S9B,9,Manis Theatre
4242,S9B,10,Hope College
4243,S9B,11,Varatharaja Mills
4244,S9B,12,PSG Krishnammal
4245,S9B,13,PSG Tech - Peelamedu
4246,S9B,14,Suguna Kalyana Mandapam
4247,S9B,15,Nava India - Avinashi rd
4248,S9B,16,Lakshmi Mills Junction
4249,S9B,17,Mani School/GKNM Hospl
4250,S9B,18,Womens Polytechnic
4251,S9B,19,Gandhipuram
4252,S9B,20,100 feet/GP
4253,S9B,21,Omni bus stand
4254,S9B,22,Lakshmi puram - Sathy rd
4255,S9B,23,Textool - Sathy rd
4256,S9B,24,Ganapathy
4257,S9B,25,CMS - Ganapathy
4258,S9B,26,Maniakaranpalayam
4259,S9B,27,Udayampalayam - Ganapathy
4260,S9B,28,Chinnavedampatti
4261,S9B,29,KCT - Saravanampatti
sno,route_id,stop_id,stop_name
4262,S9A,1,Ondipudur
4263,S9A,2,Jai Shanthi - Singanallur
4264,S9A,3,Vasantha mills - Singanallur
4265,S9A,4,Singanallur
4266,S9A,5,Varatharajapuram
4267,S9A,6,ESI - Singanallur
4268,S9A,7,LIONs - Singanallur
4269,S9A,8,Ramanuja Nagar
4270,S9A,9,Manis Theatre
4271,S9A,10,Hope College
4272,S9A,11,Varatharaja Mills
4273,S9A,12,PSG Krishnammal
4274,S9A,13,PSG Tech - Peelamedu
4275,S9A,14,Suguna Kalyana Mandapam
4276,S9A,15,Nava India - Avinashi rd
4277,S9A,16,Lakshmi Mills Junction
4278,S9A,17,Mani School/GKNM Hospl
4279,S9A,18,Womens Polytechnic
4280,S9A,19,Gandhipuram
4281,S9A,20,100 feet/GP
4282,S9A,21,Omni bus stand
4283,S9A,22,Lakshmi puram - Sathy rd
4284,S9A,23,Textool - Sathy rd
4285,S9A,24,Ganapathy
4286,S9A,25,CMS - Ganapathy
4287,S9A,26,Maniakaranpalayam
4288,S9A,27,Udayampalayam - Ganapathy
4289,S9A,28,Chinnavedampatti
4290,S9A,29,KCT - Saravanampatti
sno,route_id,stop_id,stop_name
4291,5,1,Sivanandha Colony
4292,5,2,Power House
4293,5,3,Karpagam Complex - 100ft
4294,5,4,Kalyan - 100ft rd
4295,5,5,100 feet/GP
4296,5,6,Gandhipuram
4297,5,7,Womens Polytechnic
4298,5,8,Mani School/GKNM Hospl
4299,5,9,Lakshmi Mills Junction
4300,5,10,Kidney Centre
4301,5,11,Dhamu nagar - Puliakulam
4302,5,12,Puliakulam
4303,5,13,GEM Hospital - Ramanathapuram
4304,5,14,Ramanathapuram
4305,5,15,Olympus - Ramanathapuram
4306,5,16,Sungam
4307,5,17,Sreepathi/Kannan
4308,5,18,Rainbow - Trichy rd
4309,5,19,Government Hospital
4310,5,20,Town Hall
4311,5,21,RMS Office
4312,5,22,Park Gate - Nanjappa rd
4313,5,23,Alankar - Nanjappa rd
sno,route_id,stop_id,stop_name
4314,52,1,Ukkadam
4315,52,2,BigBazaar
4316,52,3,Town Hall
4317,52,4,Government Hospital
4318,52,5,Rainbow - Trichy rd
4319,52,6,Sreepathi/Kannan
4320,52,7,Sungam
4321,52,8,Olympus - Ramanathapuram
4322,52,9,Ramanathapuram
4323,52,10,Sowripalayam Pirivu
4324,52,11,Iyer Hospital - Trichy rd
4325,52,12,Central studio - SInganallur
4326,52,13,Rajalakshmi mills/PERKS
4327,52,14,Boat House - Singanallur
4328,52,15,Housing Unit - Singanallur
4329,52,16,Singanallur
4330,52,17,Vasantha mills - Singanallur
4331,52,18,Jai Shanthi - Singanallur
4332,52,19,Ondipudur
4333,52,20,Irugur Pirivu
4334,52,21,Sinthamanipudur
4335,52,22,Pappampatti Pirivu
4336,52,23,Pallapalayam
4337,52,24,Papp
sno,route_id,stop_id,stop_name
4339,53,1,Aavarampalayam
4340,53,2,Ramakrishna Hospital
4341,53,3,Womens Polytechnic
4342,53,4,Gandhipuram
4343,53,5,Alankar - Nanjappa rd
4344,53,6,Park Gate - Nanjappa rd
4345,53,7,VOC Park
4346,53,8,Uppilipalayam - Avinashi rd
4347,53,9,Collectorate/DSP
4348,53,10,Railway Station
4349,53,11,Government Hospital
4350,53,12,Town Hall
4351,53,13,BigBazaar
4352,53,14,Ukkadam
4353,53,15,Karumbukkadai - Ukkadam
4354,53,16,Podhanur
sno,route_id,stop_id,stop_name
4355,54,1,Gandhipuram
4356,54,2,Alankar - Nanjappa rd
4357,54,3,Park Gate - Nanjappa rd
4358,54,4,VOC Park
4359,54,5,Uppilipalayam - Avinashi rd
4360,54,6,Collectorate/DSP
4361,54,7,Railway Station
4362,54,8,Government Hospital
4363,54,9,Town Hall
4364,54,10,Karuppagoundan st
4365,54,11,Chetti veedhi - Perur rd
4366,54,12,Shivalaya - Perur rd
4367,54,13,Muthusamy Colony - Selvapuram
4368,54,14,LIC Colony - Selvapuram
4369,54,15,Telungupalayam Pirivu - Perur
4370,54,16,Aathupalam - Perur rd
4371,54,17,Tamil kalloori - Perur
4372,54,18,Perur
4373,54,19,Kovai Kondattam
4374,54,20,Mathampatti
4375,54,21,Thondamuthur
sno,route_id,stop_id,stop_name
4376,55,1,Gandhipuram
4377,55,2,Alankar - Nanjappa rd
4378,55,3,Park Gate - Nanjappa rd
4379,55,4,VOC Park
4380,55,5,Uppilipalayam - Avinashi rd
4381,55,6,Collectorate/DSP
4382,55,7,Railway Station
4383,55,8,Government Hospital
4384,55,9,Town Hall
4385,55,10,BigBazaar
4386,55,11,Ukkadam
4387,55,12,Karumbukkadai - Ukkadam
4388,55,13,Aathupalam/L&T tollbooth
4389,55,14,Podhanur
4390,55,15,Vellalur
sno,route_id,stop_id,stop_name
4391,55A,1,Gandhipuram
4392,55A,2,Alankar - Nanjappa rd
4393,55A,3,Park Gate - Nanjappa rd
4394,55A,4,VOC Park
4395,55A,5,Uppilipalayam - Avinashi rd
4396,55A,6,Collectorate/DSP
4397,55A,7,Railway Station
4398,55A,8,Government Hospital
4399,55A,9,Town Hall
4400,55A,10,BigBazaar
4401,55A,11,Ukkadam
4402,55A,12,Karumbukkadai - Ukkadam
4403,55A,13,Aathupalam/L&T tollbooth
4404,55A,14,Podhanur
4405,55A,15,Vellalur
sno,route_id,stop_id,stop_name
4406,55B,1,Gandhipuram
4407,55B,2,Alankar - Nanjappa rd
4408,55B,3,Park Gate - Nanjappa rd
4409,55B,4,VOC Park
4410,55B,5,Uppilipalayam - Avinashi rd
4411,55B,6,Collectorate/DSP
4412,55B,7,Railway Station
4413,55B,8,Government Hospital
4414,55B,9,Town Hall
4415,55B,10,BigBazaar
4416,55B,11,Ukkadam
4417,55B,12,Karumbukkadai - Ukkadam
4418,55B,13,Aathupalam/L&T tollbooth
4419,55B,14,Podhanur
4420,55B,15,Vellalur
4421,55B,16,Edayarpalayam - Vellalur
sno,route_id,stop_id,stop_name
4422,57,1,Ukkadam
4423,57,2,BigBazaar
4424,57,3,Town Hall
4425,57,4,Government Hospital
4426,57,5,Railway Station
4427,57,6,Collectorate/DSP
4428,57,7,Uppilipalayam - Avinashi rd
4429,57,8,VOC Park
4430,57,9,Park Gate - Nanjappa rd
4431,57,10,Alankar - Nanjappa rd
4432,57,11,Gandhipuram
4433,57,12,100 feet/GP
4434,57,13,Omni bus stand
4435,57,14,Lakshmi puram - Sathy rd
4436,57,15,Textool - Sathy rd
4437,57,16,Ganapathy
4438,57,17,CMS - Ganapathy
4439,57,18,Athipalayam Pirivu - Sathy rd
4440,57,19,Bharathi nagar - Sathy rd
4441,57,20,Ramakrishna mill - Sathy rd
4442,57,21,Sivanandha mill - Sathy rd
4443,57,22,SRP mill - Sathy rd
4444,57,23,Amman kovil - Saravanampatti
4445,57,24,Kalappatti Pirivu - Sathy rd
4446,57,25,Saravanampatti
4447,57,26,Visuwasapuram/Sahara City
4448,57,27,SNS Institutions - Sathy rd
4449,57,28,Kurumbapalayam - Sathy rd
4450,57,29,Kovilpalayam - Sathy rd
4451,57,30,Kottaipalayam
4452,57,31,Vellamadai
sno,route_id,stop_id,stop_name
4453,57A,1,Ukkadam
4454,57A,2,BigBazaar
4455,57A,3,Town Hall
4456,57A,4,Government Hospital
4457,57A,5,Railway Station
4458,57A,6,Collectorate/DSP
4459,57A,7,Uppilipalayam - Avinashi rd
4460,57A,8,VOC Park
4461,57A,9,Anna Statue - Avinashi rd
4462,57A,10,Residency
4463,57A,11,Lakshmi Mills Junction
4464,57A,12,Nava India - Avinashi rd
4465,57A,13,Suguna Kalyana Mandapam
4466,57A,14,PSG Tech - Peelamedu
4467,57A,15,PSG Krishnammal
4468,57A,16,Varatharaja Mills
4469,57A,17,Thanner Pandhal
4470,57A,18,CheranMaNagar
4471,57A,19,Vilankurichi
4472,57A,20,Kalappatti
4473,57A,21,Kurumbapalayam - Sathy rd
4474,57A,22,Kovilpalayam - Sathy rd
4475,57A,23,Kottaipalayam
sno,route_id,stop_id,stop_name
4476,59,1,Gandhipuram
4477,59,2,Alankar - Nanjappa rd
4478,59,3,Park Gate - Nanjappa rd
4479,59,4,VOC Park
4480,59,5,Uppilipalayam - Avinashi rd
4481,59,6,Collectorate/DSP
4482,59,7,Railway Station
4483,59,8,Government Hospital
4484,59,9,Town Hall
4485,59,10,Karuppagoundan st
4486,59,11,Chetti veedhi - Perur rd
4487,59,12,Shivalaya - Perur rd
4488,59,13,Muthusamy Colony - Selvapuram
4489,59,14,LIC Colony - Selvapuram
4490,59,15,Telungupalayam Pirivu - Perur
4491,59,16,Aathupalam - Perur rd
4492,59,17,Tamil kalloori - Perur
4493,59,18,Perur
4494,59,19,Kovai Kondattam
4495,59,20,Mathampatti
4496,59,21,Aalandhurai
4497,59,22,Iruttupallam - Siruvani rd
4498,59,23,Karunya University
sno,route_id,stop_id,stop_name
4499,59A,1,Gandhipuram
4500,59A,2,Alankar - Nanjappa rd
4501,59A,3,Park Gate - Nanjappa rd
4502,59A,4,VOC Park
4503,59A,5,Uppilipalayam - Avinashi rd
4504,59A,6,Collectorate/DSP
4505,59A,7,Railway Station
4506,59A,8,Government Hospital
4507,59A,9,Town Hall
4508,59A,10,Karuppagoundan st
4509,59A,11,Chetti veedhi - Perur rd
4510,59A,12,Shivalaya - Perur rd
4511,59A,13,Muthusamy Colony - Selvapuram
4512,59A,14,LIC Colony - Selvapuram
4513,59A,15,Telungupalayam Pirivu - Perur
4514,59A,16,Aathupalam - Perur rd
4515,59A,17,Tamil kalloori - Perur
4516,59A,18,Perur
4517,59A,19,Kovai Kondattam
4518,59A,20,Mathampatti
4519,59A,21,Aalandhurai
4520,59A,22,Iruttupallam - Siruvani rd
4521,59A,23,Karunya University
sno,route_id,stop_id,stop_name
4522,59C,1,Gandhipuram
4523,59C,2,Alankar - Nanjappa rd
4524,59C,3,Park Gate - Nanjappa rd
4525,59C,4,VOC Park
4526,59C,5,Uppilipalayam - Avinashi rd
4527,59C,6,Collectorate/DSP
4528,59C,7,Railway Station
4529,59C,8,Government Hospital
4530,59C,9,Town Hall
4531,59C,10,Karuppagoundan st
4532,59C,11,Chetti veedhi - Perur rd
4533,59C,12,Shivalaya - Perur rd
4534,59C,13,Muthusamy Colony - Selvapuram
4535,59C,14,LIC Colony - Selvapuram
4536,59C,15,Telungupalayam Pirivu - Perur
4537,59C,16,Aathupalam - Perur rd
4538,59C,17,Tamil kalloori - Perur
4539,59C,18,Perur
4540,59C,19,Kovai Kondattam
4541,59C,20,Mathampatti
4542,59C,21,Aalandhurai
sno,route_id,stop_id,stop_name
4543,5C,1,Sivanandha Colony
4544,5C,2,Power House
4545,5C,3,Karpagam Complex - 100ft
4546,5C,4,Kalyan - 100ft rd
4547,5C,5,100 feet/GP
4548,5C,6,Gandhipuram
4549,5C,7,Alankar - Nanjappa rd
4550,5C,8,Park Gate - Nanjappa rd
4551,5C,9,Marakkadai
4552,5C,10,Town Hall
4553,5C,11,Government Hospital
4554,5C,12,Rainbow - Trichy rd
4555,5C,13,Sreepathi/Kannan
4556,5C,14,Sungam
4557,5C,15,Olympus - Ramanathapuram
4558,5C,16,Ramanathapuram
4559,5C,17,GEM Hospital - Ramanathapuram
4560,5C,18,Puliakulam
4561,5C,19,Dhamu nagar - Puliakulam
4562,5C,20,Kidney Centre
4563,5C,21,Lakshmi Mills Junction
4564,5C,22,Mani School/GKNM Hospl
4565,5C,23,Womens Polytechnic
sno,route_id,stop_id,stop_name
4566,61,1,ESI - Singanallur
4567,61,2,Varatharajapuram
4568,61,3,Uppilipalayam - Sowripalayam
4569,61,4,GV Residency
4570,61,5,Sowripalayam
4571,61,6,Udayampalayam - Sowripalayam
4572,61,7,Puliakulam
4573,61,8,Sungam
4574,61,9,Sreepathi/Kannan
4575,61,10,Rainbow - Trichy rd
4576,61,11,Government Hospital
4577,61,12,Town Hall
4578,61,13,Karuppagoundan st
4579,61,14,Chetti veedhi - Perur rd
4580,61,15,Shivalaya - Perur rd
4581,61,16,Muthusamy Colony - Selvapuram
4582,61,17,LIC Colony - Selvapuram
4583,61,18,Telungupalayam Pirivu - Perur
4584,61,19,Aathupalam - Perur rd
4585,61,20,Tamil kalloori - Perur
4586,61,21,Perur
sno,route_id,stop_id,stop_name
4587,62,1,Ukkadam
4588,62,2,BigBazaar
4589,62,3,Town Hall
4590,62,4,Sukravarpettai
4591,62,5,Marakkadai
4592,62,6,Flower Market
4593,62,7,North Coimbatore/Vadakovai
4594,62,8,TVS - MTP rd
4595,62,9,Muthu theatre - MTP rd
4596,62,10,Murugan mills - MTP rd
4597,62,11,Saibaba Kovil
4598,62,12,Eru Company - MTP rd
4599,62,13,Housing unit - Kovundampalayam
4600,62,14,Kavundampalayam
4601,62,15,Cheran Nagar - MTP rd
4602,62,16,ITI - MTP rd
4603,62,17,GN mills - MTP rd
4604,62,18,Vellakinar Pirivu - MTP rd
4605,62,19,Thudiyalur
4606,62,20,Vadamadurai
4607,62,21,NGGO Colony
4608,62,22,Idigarai
4609,62,23,Athipalayam
4610,62,24,Kottaipalayam
4611,62,25,Kovilpalayam - Sathy rd
sno,route_id,stop_id,stop_name
4612,63,1,LIC Colony - Selvapuram
4613,63,2,Muthusamy Colony - Selvapuram
4614,63,3,Shivalaya - Perur rd
4615,63,4,Chetti veedhi - Perur rd
4616,63,5,Karuppagoundan st
4617,63,6,Town Hall
4618,63,7,Government Hospital
4619,63,8,Railway Station
4620,63,9,Collectorate/DSP
4621,63,10,Uppilipalayam - Avinashi rd
4622,63,11,VOC Park
4623,63,12,Park Gate - Nanjappa rd
4624,63,13,Alankar - Nanjappa rd
4625,63,14,Gandhipuram
4626,63,15,100 feet/GP
4627,63,16,Omni bus stand
4628,63,17,Lakshmi puram - Sathy rd
4629,63,18,Textool - Sathy rd
4630,63,19,Ganapathy
4631,63,20,CMS - Ganapathy
4632,63,21,Athipalayam Pirivu - Sathy rd
4633,63,22,Bharathi nagar - Sathy rd
4634,63,23,Ramakrishna mill - Sathy rd
4635,63,24,Sivanandha mill - Sathy rd
4636,63,25,SRP mill - Sathy rd
4637,63,26,Amman kovil - Saravanampatti
4638,63,27,Kalappatti Pirivu - Sathy rd
4639,63,28,Saravanampatti
4640,63,29,Visuwasapuram/Sahara City
sno,route_id,stop_id,stop_name
4641,64,1,Gandhipuram
4642,64,2,Alankar - Nanjappa rd
4643,64,3,Park Gate - Nanjappa rd
4644,64,4,VOC Park
4645,64,5,Uppilipalayam - Avinashi rd
4646,64,6,Sukravarpettai
4647,64,7,Gandhi Park
4648,64,8,Pal Company(Aavin)
4649,64,9,Lawley Road
4650,64,10,Agricultural University
4651,64,11,PN pudur - Vadavalli
4652,64,12,Mullai Nagar - Vadavalli
4653,64,13,Vadavalli
4654,64,14,Onapalayam - Thondamuthur rd
4655,64,15,Kulathupalayam
4656,64,16,Thondamuthur
sno,route_id,stop_id,stop_name
4657,64B,1,Gandhipuram
4658,64B,2,Alankar - Nanjappa rd
4659,64B,3,Park Gate - Nanjappa rd
4660,64B,4,VOC Park
4661,64B,5,Uppilipalayam - Avinashi rd
4662,64B,6,Sukravarpettai
4663,64B,7,Gandhi Park
4664,64B,8,Pal Company(Aavin)
4665,64B,9,Lawley Road
4666,64B,10,Agricultural University
4667,64B,11,PN pudur - Vadavalli
4668,64B,12,Mullai Nagar - Vadavalli
4669,64B,13,Vadavalli
4670,64B,14,Onapalayam - Thondamuthur rd
4671,64B,15,Kulathupalayam
4672,64B,16,Thondamuthur
sno,route_id,stop_id,stop_name
4673,64D,1,Gandhipuram
4674,64D,2,100 feet/GP
4675,64D,3,Kalyan - 100ft rd
4676,64D,4,Karpagam Complex - 100ft
4677,64D,5,Power House
4678,64D,6,TVS - MTP rd
4679,64D,7,Muthu theatre - MTP rd
4680,64D,8,Murugan mills - MTP rd
4681,64D,9,Saibaba Kovil
4682,64D,10,Puliamaram stop - NSR rd
4683,64D,11,Saibaba Colony
4684,64D,12,Venkittapuram
4685,64D,13,GCT - Thadagam rd
4686,64D,14,Lawley Road
4687,64D,15,Agricultural University
4688,64D,16,PN pudur - Vadavalli
4689,64D,17,Mullai Nagar - Vadavalli
4690,64D,18,Vadavalli
4691,64D,19,Onapalayam - Thondamuthur rd
4692,64D,20,Kulathupalayam
4693,64D,21,Thondamuthur
4694,64D,22,Devarayapuram
4695,64D,23,Narasipuram
sno,route_id,stop_id,stop_name
4696,64E,1,Gandhipuram
4697,64E,2,100 feet/GP
4698,64E,3,Kalyan - 100ft rd
4699,64E,4,Karpagam Complex - 100ft
4700,64E,5,Power House
4701,64E,6,TVS - MTP rd
4702,64E,7,Muthu theatre - MTP rd
4703,64E,8,Murugan mills - MTP rd
4704,64E,9,Saibaba Kovil
4705,64E,10,Puliamaram stop - NSR rd
4706,64E,11,Saibaba Colony
4707,64E,12,Venkittapuram
4708,64E,13,GCT - Thadagam rd
4709,64E,14,Lawley Road
4710,64E,15,Agricultural University
4711,64E,16,PN pudur - Vadavalli
4712,64E,17,Mullai Nagar - Vadavalli
4713,64E,18,Vadavalli
4714,64E,19,Onapalayam - Thondamuthur rd
4715,64E,20,Kulathupalayam
4716,64E,21,Thondamuthur
sno,route_id,stop_id,stop_name
4717,65,1,Gandhipuram
4718,65,2,Alankar - Nanjappa rd
4719,65,3,Park Gate - Nanjappa rd
4720,65,4,VOC Park
4721,65,5,Uppilipalayam - Avinashi rd
4722,65,6,Collectorate/DSP
4723,65,7,Railway Station
4724,65,8,Government Hospital
4725,65,9,Rainbow - Trichy rd
4726,65,10,Sreepathi/Kannan
4727,65,11,Sungam
4728,65,12,Olympus - Ramanathapuram
4729,65,13,Ramanathapuram
4730,65,14,Sowripalayam Pirivu
4731,65,15,Iyer Hospital - Trichy rd
4732,65,16,Central studio - SInganallur
4733,65,17,Rajalakshmi mills/PERKS
4734,65,18,Boat House - Singanallur
4735,65,19,Housing Unit - Singanallur
4736,65,20,Singanallur
4737,65,21,Vasantha mills - Singanallur
4738,65,22,Jai Shanthi - Singanallur
4739,65,23,Ondipudur
4740,65,24,Irugur Pirivu
4741,65,25,Sinthamanipudur
4742,65,26,Pappampatti Pirivu
4743,65,27,Pallapalayam
4744,65,28,Kannampalayam
sno,route_id,stop_id,stop_name
4745,65A,1,Gandhipuram
4746,65A,2,Womens Polytechnic
4747,65A,3,Mani School/GKNM Hospl
4748,65A,4,Lakshmi Mills Junction
4749,65A,5,Nava India - Avinashi rd
4750,65A,6,Suguna Kalyana Mandapam
4751,65A,7,PSG Tech - Peelamedu
4752,65A,8,PSG Krishnammal
4753,65A,9,Varatharaja Mills
4754,65A,10,Hope College
4755,65A,11,Manis Theatre
4756,65A,12,Ramanuja Nagar
4757,65A,13,LIONs - Singanallur
4758,65A,14,ESI - Singanallur
4759,65A,15,Varatharajapuram
4760,65A,16,Singanallur
4761,65A,17,Vasantha mills - Singanallur
4762,65A,18,Jai Shanthi - Singanallur
4763,65A,19,Ondipudur
4764,65A,20,Irugur Pirivu
4765,65A,21,Sinthamanipudur
4766,65A,22,Pappampatti Pirivu
4767,65A,23,Pallapalayam
4768,65A,24,Kannampalayam
4769,65A,25,Ranganathapuram - Sulur
4770,65A,26,Sulur
sno,route_id,stop_id,stop_name
4771,68,1,Gandhipuram
4772,68,2,Womens Polytechnic
4773,68,3,Mani School/GKNM Hospl
4774,68,4,Lakshmi Mills Junction
4775,68,5,Nava India - Avinashi rd
4776,68,6,Suguna Kalyana Mandapam
4777,68,7,PSG Tech - Peelamedu
4778,68,8,PSG Krishnammal
4779,68,9,Varatharaja Mills
4780,68,10,Thanner Pandhal
4781,68,11,CheranMaNagar
sno,route_id,stop_id,stop_name
4782,69,1,Gandhipuram
4783,69,2,Womens Polytechnic
4784,69,3,Mani School/GKNM Hospl
4785,69,4,Lakshmi Mills Junction
4786,69,5,Nava India - Avinashi rd
4787,69,6,Suguna Kalyana Mandapam
4788,69,7,PSG Tech - Peelamedu
4789,69,8,PSG Krishnammal
4790,69,9,Varatharaja Mills
4791,69,10,Hope College
4792,69,11,Manis Theatre
4793,69,12,Ramanuja Nagar
4794,69,13,LIONs - Singanallur
4795,69,14,ESI - Singanallur
4796,69,15,Varatharajapuram
4797,69,16,Singanallur
4798,69,17,Vasantha mills - Singanallur
4799,69,18,Jai Shanthi - Singanallur
4800,69,19,Ondipudur
4801,69,20,Pattanam
4802,69,21,Peedampalli
sno,route_id,stop_id,stop_name
4803,69,1,Gandhipuram
4804,69,2,Womens Polytechnic
4805,69,3,Mani School/GKNM Hospl
4806,69,4,Lakshmi Mills Junction
4807,69,5,Nava India - Avinashi rd
4808,69,6,Suguna Kalyana Mandapam
4809,69,7,PSG Tech - Peelamedu
4810,69,8,PSG Krishnammal
4811,69,9,Varatharaja Mills
4812,69,10,Hope College
4813,69,11,Manis Theatre
4814,69,12,Ramanuja Nagar
4815,69,13,LIONs - Singanallur
4816,69,14,ESI - Singanallur
4817,69,15,Varatharajapuram
4818,69,16,Singanallur
4819,69,17,Vasantha mills - Singanallur
4820,69,18,Jai Shanthi - Singanallur
4821,69,19,Ondipudur
4822,69,20,Pattanam
4823,69,21,Peedampalli
sno,route_id,stop_id,stop_name
4824,69A,1,Gandhipuram
4825,69A,2,Womens Polytechnic
4826,69A,3,Mani School/GKNM Hospl
4827,69A,4,Lakshmi Mills Junction
4828,69A,5,Nava India - Avinashi rd
4829,69A,6,Suguna Kalyana Mandapam
4830,69A,7,PSG Tech - Peelamedu
4831,69A,8,PSG Krishnammal
4832,69A,9,Varatharaja Mills
4833,69A,10,Hope College
4834,69A,11,Manis Theatre
4835,69A,12,Ramanuja Nagar
4836,69A,13,LIONs - Singanallur
4837,69A,14,ESI - Singanallur
4838,69A,15,Varatharajapuram
4839,69A,16,Singanallur
4840,69A,17,Vasantha mills - Singanallur
4841,69A,18,Jai Shanthi - Singanallur
4842,69A,19,Ondipudur
4843,69A,20,Pattanam
4844,69A,21,Peedampalli
4845,69A,22,Pappampatti
sno,route_id,stop_id,stop_name
4846,69B,1,Gandhipuram
4847,69B,2,Womens Polytechnic
4848,69B,3,Mani School/GKNM Hospl
4849,69B,4,Lakshmi Mills Junction
4850,69B,5,Nava India - Avinashi rd
4851,69B,6,Suguna Kalyana Mandapam
4852,69B,7,PSG Tech - Peelamedu
4853,69B,8,PSG Krishnammal
4854,69B,9,Varatharaja Mills
4855,69B,10,Hope College
4856,69B,11,Manis Theatre
4857,69B,12,Ramanuja Nagar
4858,69B,13,LIONs - Singanallur
4859,69B,14,ESI - Singanallur
4860,69B,15,Varatharajapuram
4861,69B,16,Singanallur
4862,69B,17,Vasantha mills - Singanallur
4863,69B,18,Jai Shanthi - Singanallur
4864,69B,19,Ondipudur
4865,69B,20,Pattanam
4866,69B,21,Peedampalli
sno,route_id,stop_id,stop_name
4867,69C,1,Gandhipuram
4868,69C,2,Womens Polytechnic
4869,69C,3,Mani School/GKNM Hospl
4870,69C,4,Lakshmi Mills Junction
4871,69C,5,Nava India - Avinashi rd
4872,69C,6,Suguna Kalyana Mandapam
4873,69C,7,PSG Tech - Peelamedu
4874,69C,8,PSG Krishnammal
4875,69C,9,Varatharaja Mills
4876,69C,10,Hope College
4877,69C,11,Manis Theatre
4878,69C,12,Ramanuja Nagar
4879,69C,13,LIONs - Singanallur
4880,69C,14,ESI - Singanallur
4881,69C,15,Varatharajapuram
4882,69C,16,Singanallur
4883,69C,17,Vasantha mills - Singanallur
4884,69C,18,Jai Shanthi - Singanallur
4885,69C,19,Ondipudur
4886,69C,20,Pattanam
4887,69C,21,Peedampalli
4888,69C,22,Pappampatti
4889,69C,23,Edayarpalayam - Pappampatti
4890,69C,24,Akkanaickenpalayam
sno,route_id,stop_id,stop_name
4891,6A,1,Gandhipuram
4892,6A,2,100 feet/GP
4893,6A,3,Kalyan - 100ft rd
4894,6A,4,Karpagam Complex - 100ft
4895,6A,5,Power House
4896,6A,6,TVS - MTP rd
4897,6A,7,Muthu theatre - MTP rd
4898,6A,8,Murugan mills - MTP rd
4899,6A,9,Saibaba Kovil
4900,6A,10,Eru Company - MTP rd
4901,6A,11,Housing unit - Kovundampalayam
4902,6A,12,Kavundampalayam
4903,6A,13,Cheran Nagar - MTP rd
4904,6A,14,ITI - MTP rd
4905,6A,15,GN mills - MTP rd
4906,6A,16,Vellakinar Pirivu - MTP rd
4907,6A,17,Thudiyalur
4908,6A,18,Vadamadurai
4909,6A,19,NGGO Colony
4910,6A,20,Kumaran mill - MTP rd
4911,6A,21,Narasimmanaicken palayam
4912,6A,22,Ramnarayana mill - MTP rd
4913,6A,23,LMW - MTP rd
4914,6A,24,Periyanaickenpalayam
sno,route_id,stop_id,stop_name
4915,7,1,Gandhi Park
4916,7,2,Kennedy - R.S.Puram
4917,7,3,Annapoorna - R.S.Puram
4918,7,4,Post Office - R.S.Puram
4919,7,5,Savitha Hall - R.S.Puram
4920,7,6,North Coimbatore/Vadakovai
4921,7,7,Power House
4922,7,8,Karpagam Complex - 100ft
4923,7,9,Kalyan - 100ft rd
4924,7,10,100 feet/GP
4925,7,11,Gandhipuram
4926,7,12,Alankar - Nanjappa rd
4927,7,13,Park Gate - Nanjappa rd
4928,7,14,KG Hospital/Theatre
4929,7,15,Saradhambal Temple - Race Course
4930,7,16,Thomas Park - Race Course
4931,7,17,Puliakulam
4932,7,18,Sungam
4933,7,19,Sreepathi/Kannan
4934,7,20,Rainbow - Trichy rd
4935,7,21,Government Hospital
4936,7,22,Town Hall
4937,7,23,Karuppagoundan st
sno,route_id,stop_id,stop_name
4938,70,1,Maruthamalai
4939,70,2,Law College
4940,70,3,IOB Colony - Maruthamalai
4941,70,4,Bharathiyar University
4942,70,5,Kalveerampalayam
4943,70,6,Navavoor Pirivu
4944,70,7,Aalamaram - Vadavalli
4945,70,8,Vadavalli
4946,70,9,Mullai Nagar - Vadavalli
4947,70,10,PN pudur - Vadavalli
4948,70,11,Agricultural University
4949,70,12,Lawley Road
4950,70,13,GCT - Thadagam rd
4951,70,14,Venkittapuram
4952,70,15,Saibaba Colony
4953,70,16,Puliamaram stop - NSR rd
4954,70,17,Saibaba Kovil
4955,70,18,Sivanandha Colony
4956,70,19,Power House
4957,70,20,Karpagam Complex - 100ft
4958,70,21,Kalyan - 100ft rd
4959,70,22,100 feet/GP
4960,70,23,Gandhipuram
sno,route_id,stop_id,stop_name
4961,70A,1,Maruthamalai
4962,70A,2,Law College
4963,70A,3,IOB Colony - Maruthamalai
4964,70A,4,Bharathiyar University
4965,70A,5,Kalveerampalayam
4966,70A,6,Navavoor Pirivu
4967,70A,7,Aalamaram - Vadavalli
4968,70A,8,Vadavalli
4969,70A,9,EB Colony - Vadavalli rd
4970,70A,10,Annanagar - Vadavalli rd
4971,70A,11,Edayarpalayam - Thadagam rd
4972,70A,12,Sivaji Colony - Thadagam rd
4973,70A,13,Kovilmedu
4974,70A,14,Velandipalayam
4975,70A,15,Venkittapuram
4976,70A,16,Saibaba Colony
4977,70A,17,Puliamaram stop - NSR rd
4978,70A,18,Saibaba Kovil
4979,70A,19,Sivanandha Colony
4980,70A,20,Power House
4981,70A,21,Karpagam Complex - 100ft
4982,70A,22,Kalyan - 100ft rd
4983,70A,23,100 feet/GP
4984,70A,24,Gandhipuram
4985,70A,25,Womens Polytechnic
4986,70A,26,Ramakrishna Hospital
4987,70A,27,Aavarampalayam
sno,route_id,stop_id,stop_name
4988,70B,1,Maruthamalai
4989,70B,2,Law College
4990,70B,3,IOB Colony - Maruthamalai
4991,70B,4,Bharathiyar University
4992,70B,5,Kalveerampalayam
4993,70B,6,Navavoor Pirivu
4994,70B,7,Aalamaram - Vadavalli
4995,70B,8,Vadavalli
4996,70B,9,Mullai Nagar - Vadavalli
4997,70B,10,PN pudur - Vadavalli
4998,70B,11,Agricultural University
4999,70B,12,Lawley Road
5000,70B,13,GCT - Thadagam rd
5001,70B,14,Venkittapuram
5002,70B,15,Saibaba Colony
5003,70B,16,Puliamaram stop - NSR rd
5004,70B,17,Saibaba Kovil
5005,70B,18,Sivanandha Colony
5006,70B,19,Power House
5007,70B,20,Karpagam Complex - 100ft
5008,70B,21,Kalyan - 100ft rd
5009,70B,22,100 feet/GP
5010,70B,23,Gandhipuram
5011,70B,24,Womens Polytechnic
5012,70B,25,Ramakrishna Hospital
5013,70B,26,Aavarampalayam
sno,route_id,stop_id,stop_name
5014,71A,1,Kovilmedu
5015,71A,2,Velandipalayam
5016,71A,3,Venkittapuram
5017,71A,4,Saibaba Colony
5018,71A,5,Puliamaram stop - NSR rd
5019,71A,6,Saibaba Kovil
5020,71A,7,Murugan mills - MTP rd
5021,71A,8,Muthu theatre - MTP rd
5022,71A,9,TVS - MTP rd
5023,71A,10,Power House
5024,71A,11,Karpagam Complex - 100ft
5025,71A,12,Kalyan - 100ft rd
5026,71A,13,100 feet/GP
5027,71A,14,Gandhipuram
5028,71A,15,Alankar - Nanjappa rd
5029,71A,16,Park Gate - Nanjappa rd
5030,71A,17,VOC Park
5031,71A,18,Uppilipalayam - Avinashi rd
5032,71A,19,Collectorate/DSP
5033,71A,20,Railway Station
5034,71A,21,Government Hospital
5035,71A,22,Town Hall
5036,71A,23,BigBazaar
5037,71A,24,Ukkadam
5038,71A,25,Karumbukkadai - Ukkadam
5039,71A,26,Aathupalam/L&T tollbooth
5040,71A,27,Kurichi
5041,71A,28,Sundharapuram
5042,71A,29,Housing Unit - Kurichi
sno,route_id,stop_id,stop_name
5043,72,1,Ondipudur
5044,72,2,Jai Shanthi - Singanallur
5045,72,3,Vasantha mills - Singanallur
5046,72,4,Singanallur
5047,72,5,Varatharajapuram
5048,72,6,ESI - Singanallur
5049,72,7,LIONs - Singanallur
5050,72,8,Ramanuja Nagar
5051,72,9,Manis Theatre
5052,72,10,Hope College
5053,72,11,CMC - Avinashi rd
5054,72,12,CIT - CODISSIA
5055,72,13,Polytechnic - Avinashi rd
5056,72,14,PSG Arts
5057,72,15,SITRA/Airport
5058,72,16,KMCH - Avinashi rd
5059,72,17,Goldwins
5060,72,18,Thottipalayam Pirivu
5061,72,19,Rangasamy Goundan pudur
5062,72,20,Chinniyampalayam
5063,72,21,Neelambur
5064,72,22,Arasur - Avinashi road
5065,72,23,Kaniyur
5066,72,24,Karumathampatti
sno,route_id,stop_id,stop_name
5067,72A,1,Ukkadam
5068,72A,2,BigBazaar
5069,72A,3,Town Hall
5070,72A,4,Government Hospital
5071,72A,5,Railway Station
5072,72A,6,Collectorate/DSP
5073,72A,7,Uppilipalayam - Avinashi rd
5074,72A,8,VOC Park
5075,72A,9,Anna Statue - Avinashi rd
5076,72A,10,Residency
5077,72A,11,Lakshmi Mills Junction
5078,72A,12,Nava India - Avinashi rd
5079,72A,13,Suguna Kalyana Mandapam
5080,72A,14,PSG Tech - Peelamedu
5081,72A,15,PSG Krishnammal
5082,72A,16,Varatharaja Mills
5083,72A,17,Hope College
5084,72A,18,Manis Theatre
5085,72A,19,CMC - Avinashi rd
5086,72A,20,CIT - CODISSIA
5087,72A,21,Polytechnic - Avinashi rd
5088,72A,22,PSG Arts
5089,72A,23,SITRA/Airport
5090,72A,24,KMCH - Avinashi rd
5091,72A,25,Goldwins
5092,72A,26,Thottipalayam Pirivu
5093,72A,27,Rangasamy Goundan pudur
5094,72A,28,Chinniyampalay
5095,72A,29,Neelambur
sno,route_id,stop_id,stop_name
5096,73B,1,Gandhipuram
5097,73B,2,Alankar - Nanjappa rd
5098,73B,3,Park Gate - Nanjappa rd
5099,73B,4,VOC Park
5100,73B,5,Uppilipalayam - Avinashi rd
5101,73B,6,Collectorate/DSP
5102,73B,7,Railway Station
5103,73B,8,Government Hospital
5104,73B,9,Town Hall
5105,73B,10,BigBazaar
5106,73B,11,Ukkadam
5107,73B,12,Karumbukkadai - Ukkadam
5108,73B,13,Aathupalam/L&T tollbooth
5109,73B,14,Kurichi
5110,73B,15,Sundharapuram
5111,73B,16,SIDCO - Pollachi rd
5112,73B,17,Eachanari Rly gate
5113,73B,18,Rathinam Institutions
5114,73B,19,Eachanari
5115,73B,20,Karpagam University
5116,73B,21,Malumichampatti
5117,73B,22,Othakalmandapam
5118,73B,23,Myleripalayam Pirivu
5119,73B,24,Myleripalayam
sno,route_id,stop_id,stop_name
5120,74,1,Gandhipuram
5121,74,2,Womens Polytechnic
5122,74,3,Mani School/GKNM Hospl
5123,74,4,Lakshmi Mills Junction
5124,74,5,Nava India - Avinashi rd
5125,74,6,Suguna Kalyana Mandapam
5126,74,7,PSG Tech - Peelamedu
5127,74,8,PSG Krishnammal
5128,74,9,Varatharaja Mills
5129,74,10,Hope College
5130,74,11,Manis Theatre
5131,74,12,Ramanuja Nagar
5132,74,13,LIONs - Singanallur
5133,74,14,ESI - Singanallur
5134,74,15,Varatharajapuram
5135,74,16,Singanallur
5136,74,17,Singai Nagar - Singanallur
5137,74,18,ELGI Nagar - Singanallur
5138,74,19,Vellalur
5139,74,20,Edayarpalayam - Vellalur
sno,route_id,stop_id,stop_name
5140,76,1,Ganapathy
5141,76,2,Textool - Sathy rd
5142,76,3,Lakshmi puram - Sathy rd
5143,76,4,Omni bus stand
5144,76,5,100 feet/GP
5145,76,6,Gandhipuram
5146,76,7,Alankar - Nanjappa rd
5147,76,8,Park Gate - Nanjappa rd
5148,76,9,VOC Park
5149,76,10,Uppilipalayam - Avinashi rd
5150,76,11,Sukravarpettai
5151,76,12,Gandhi Park
5152,76,13,Pal Company(Aavin)
5153,76,14,Lawley Road
5154,76,15,Agricultural University
5155,76,16,PN pudur - Vadavalli
5156,76,17,Mullai Nagar - Vadavalli
5157,76,18,Vadavalli
5158,76,19,Aalamaram - Vadavalli
5159,76,20,Navavoor Pirivu
5160,76,21,Kalveerampalayam
5161,76,22,Bharathiyar University
5162,76,23,IOB Colony - Maruthamalai
5163,76,24,Law College
5164,76,25,Maruthamalai
sno,route_id,stop_id,stop_name
5165,77,1,Ukkadam
5166,77,2,BigBazaar
5167,77,3,Town Hall
5168,77,4,Government Hospital
5169,77,5,Rainbow - Trichy rd
5170,77,6,Sreepathi/Kannan
5171,77,7,Sungam
5172,77,8,Olympus - Ramanathapuram
5173,77,9,Ramanathapuram
5174,77,10,Sowripalayam Pirivu
5175,77,11,Iyer Hospital - Trichy rd
5176,77,12,Central studio - SInganallur
5177,77,13,Rajalakshmi mills/PERKS
5178,77,14,Boat House - Singanallur
5179,77,15,Housing Unit - Singanallur
5180,77,16,Singanallur
5181,77,17,Vasantha mills - Singanallur
5182,77,18,Jai Shanthi - Singanallur
5183,77,19,Ondipudur
5184,77,20,Irugur Pirivu
5185,77,21,Sinthamanipudur
5186,77,22,Pappampatti Pirivu
5187,77,23,Pallapalayam
5188,77,24,Pappampatti
5189,77,25,Edayarpalayam - Pappampatti
sno,route_id,stop_id,stop_name
5190,77A,1,Ukkadam
5191,77A,2,BigBazaar
5192,77A,3,Town Hall
5193,77A,4,Government Hospital
5194,77A,5,Rainbow - Trichy rd
5195,77A,6,Sreepathi/Kannan
5196,77A,7,Sungam
5197,77A,8,Olympus - Ramanathapuram
5198,77A,9,Ramanathapuram
5199,77A,10,Sowripalayam Pirivu
5200,77A,11,Iyer Hospital - Trichy rd
5201,77A,12,Central studio - SInganallur
5202,77A,13,Rajalakshmi mills/PERKS
5203,77A,14,Boat House - Singanallur
5204,77A,15,Housing Unit - Singanallur
5205,77A,16,Singanallur
5206,77A,17,Vasantha mills - Singanallur
5207,77A,18,Jai Shanthi - Singanallur
5208,77A,19,Ondipudur
5209,77A,20,Irugur Pirivu
5210,77A,21,Sinthamanipudur
5211,77A,22,Pappampatti Pirivu
5212,77A,23,Pallapalayam
5213,77A,24,Pappampatti
5214,77A,25,Edayarpalayam - Pappampatti
5215,77A,26,Akkanaickenpalayam
sno,route_id,stop_id,stop_name
5216,77B,1,Ukkadam
5217,77B,2,BigBazaar
5218,77B,3,Town Hall
5219,77B,4,Government Hospital
5220,77B,5,Rainbow - Trichy rd
5221,77B,6,Sreepathi/Kannan
5222,77B,7,Sungam
5223,77B,8,Olympus - Ramanathapuram
5224,77B,9,Ramanathapuram
5225,77B,10,Sowripalayam Pirivu
5226,77B,11,Iyer Hospital - Trichy rd
5227,77B,12,Central studio - SInganallur
5228,77B,13,Rajalakshmi mills/PERKS
5229,77B,14,Boat House - Singanallur
5230,77B,15,Housing Unit - Singanallur
5231,77B,16,Singanallur
5232,77B,17,Vasantha mills - Singanallur
5233,77B,18,Jai Shanthi - Singanallur
5234,77B,19,Ondipudur
5235,77B,20,Irugur Pirivu
5236,77B,21,Sinthamanipudur
5237,77B,22,Pappampatti Pirivu
5238,77B,23,Pallapalayam
5239,77B,24,Pappampatti
5240,77B,25,Edayarpalayam - Pappampatti
5241,77B,26,Chandrapuram
sno,route_id,stop_id,stop_name
5242,78,1,Gandhipuram
5243,78,2,Alankar - Nanjappa rd
5244,78,3,Park Gate - Nanjappa rd
5245,78,4,VOC Park
5246,78,5,Uppilipalayam - Avinashi rd
5247,78,6,Sukravarpettai
5248,78,7,Gandhi Park
5249,78,8,Pal Company(Aavin)
5250,78,9,Lawley Road
5251,78,10,GCT - Thadagam rd
5252,78,11,Venkittapuram
5253,78,12,Velandipalayam
5254,78,13,Kovilmedu
5255,78,14,Sivaji Colony - Thadagam rd
5256,78,15,Edayarpalayam - Thadagam rd
5257,78,16,TVS Nagar - Thadagam rd
5258,78,17,KNG Pudur
5259,78,18,Kanuvai
5260,78,19,Somayanur - Thadagam rd
5261,78,20,Chinna Thadagam
5262,78,21,Thadagam/Anuvavi temple
sno,route_id,stop_id,stop_name
5263,7C,1,Gandhi Park
5264,7C,2,Karuppagoundan st
5265,7C,3,Town Hall
5266,7C,4,Government Hospital
5267,7C,5,Rainbow - Trichy rd
5268,7C,6,Sreepathi/Kannan
5269,7C,7,Sungam
5270,7C,8,Puliakulam
5271,7C,9,Thomas Park - Race Course
5272,7C,10,Saradhambal Temple - Race Course
5273,7C,11,KG Hospital/Theatre
5274,7C,12,Park Gate - Nanjappa rd
5275,7C,13,Alankar - Nanjappa rd
5276,7C,14,Gandhipuram
5277,7C,15,100 feet/GP
5278,7C,16,Kalyan - 100ft rd
5279,7C,17,Karpagam Complex - 100ft
5280,7C,18,Power House
5281,7C,19,North Coimbatore/Vadakovai
5282,7C,20,Savitha Hall - R.S.Puram
5283,7C,21,Post Office - R.S.Puram
5284,7C,22,Annapoorna - R.S.Puram
5285,7C,23,Kennedy - R.S.Puram
sno,route_id,stop_id,stop_name
5286,8,1,Singanallur
5287,8,2,Housing Unit - Singanallur
5288,8,3,Boat House - Singanallur
5289,8,4,Rajalakshmi mills/PERKS
5290,8,5,Central studio - SInganallur
5291,8,6,Iyer Hospital - Trichy rd
5292,8,7,Sowripalayam Pirivu
5293,8,8,Ramanathapuram
5294,8,9,Olympus - Ramanathapuram
5295,8,10,Sungam
5296,8,11,Sreepathi/Kannan
5297,8,12,Rainbow - Trichy rd
5298,8,13,Government Hospital
5299,8,14,Town Hall
5300,8,15,BigBazaar
5301,8,16,Ukkadam
5302,8,17,Karumbukkadai - Ukkadam
5303,8,18,Aathupalam/L&T tollbooth
5304,8,19,Podhanur
5305,8,20,Chettipalayam
sno,route_id,stop_id,stop_name
5306,80,1,Ondipudur
5307,80,2,Jai Shanthi - Singanallur
5308,80,3,Vasantha mills - Singanallur
5309,80,4,Singanallur
5310,80,5,Varatharajapuram
5311,80,6,ESI - Singanallur
5312,80,7,LIONs - Singanallur
5313,80,8,Ramanuja Nagar
5314,80,9,Manis Theatre
5315,80,10,Hope College
5316,80,11,Varatharaja Mills
5317,80,12,PSG Krishnammal
5318,80,13,PSG Tech - Peelamedu
5319,80,14,Suguna Kalyana Mandapam
5320,80,15,Nava India - Avinashi rd
5321,80,16,Lakshmi Mills Junction
5322,80,17,Mani School/GKNM Hospl
5323,80,18,Womens Polytechnic
5324,80,19,Gandhipuram
5325,80,20,Alankar - Nanjappa rd
5326,80,21,Park Gate - Nanjappa rd
5327,80,22,VOC Park
5328,80,23,Uppilipalayam - Avinashi rd
5329,80,24,Collectorate/DSP
5330,80,25,Railway Station
5331,80,26,Government Hospital
5332,80,27,Town Hall
5333,80,28,BigBazaar
5334,80,29,Ukkadam
5335,80,30,Karumbukkadai - Ukkadam
5336,80,31,Aathupalam/L&T tollbooth
5337,80,32,Kuniamuthur
5338,80,33,Edayarpalayam - Palghat rd
sno,route_id,stop_id,stop_name
5339,88,1,Saibaba Kovil
5340,88,2,Sivanandha Colony
5341,88,3,Power House
5342,88,4,Karpagam Complex - 100ft
5343,88,5,Kalyan - 100ft rd
5344,88,6,100 feet/GP
5345,88,7,Gandhipuram
5346,88,8,Womens Polytechnic
5347,88,9,Mani School/GKNM Hospl
5348,88,10,Lakshmi Mills Junction
5349,88,11,Nava India - Avinashi rd
5350,88,12,Suguna Kalyana Mandapam
5351,88,13,PSG Tech - Peelamedu
5352,88,14,PSG Krishnammal
5353,88,15,Varatharaja Mills
5354,88,16,Hope College
5355,88,17,Manis Theatre
5356,88,18,Ramanuja Nagar
5357,88,19,LIONs - Singanallur
5358,88,20,ESI - Singanallur
5359,88,21,Varatharajapuram
5360,88,22,Singanallur
5361,88,23,Vasantha mills - Singanallur
5362,88,24,Jai Shanthi - Singanallur
5363,88,25,Ondipudur
5364,88,26,Irugur Pirivu
5365,88,27,Irugur
sno,route_id,stop_id,stop_name
5366,8A,1,Pappampatti Pirivu
5367,8A,2,Sinthamanipudur
5368,8A,3,Irugur Pirivu
5369,8A,4,Ondipudur
5370,8A,5,Jai Shanthi - Singanallur
5371,8A,6,Vasantha mills - Singanallur
5372,8A,7,Singanallur
5373,8A,8,Housing Unit - Singanallur
5374,8A,9,Boat House - Singanallur
5375,8A,10,Rajalakshmi mills/PERKS
5376,8A,11,Central studio - SInganallur
5377,8A,12,Iyer Hospital - Trichy rd
5378,8A,13,Sowripalayam Pirivu
5379,8A,14,Ramanathapuram
5380,8A,15,Olympus - Ramanathapuram
5381,8A,16,Sungam
5382,8A,17,Sreepathi/Kannan
5383,8A,18,Rainbow - Trichy rd
5384,8A,19,Government Hospital
5385,8A,20,Town Hall
5386,8A,21,BigBazaar
5387,8A,22,Ukkadam
5388,8A,23,Karumbukkadai - Ukkadam
5389,8A,24,Aathupalam/L&T toll
sno,route_id,stop_id,stop_name
5391,9,1,Ukkadam
5392,9,2,BigBazaar
5393,9,3,Town Hall
5394,9,4,Government Hospital
5395,9,5,Railway Station
5396,9,6,Collectorate/DSP
5397,9,7,Uppilipalayam - Avinashi rd
5398,9,8,VOC Park
5399,9,9,Anna Statue - Avinashi rd
5400,9,10,Residency
5401,9,11,Lakshmi Mills Junction
5402,9,12,Nava India - Avinashi rd
5403,9,13,Suguna Kalyana Mandapam
5404,9,14,PSG Tech - Peelamedu
5405,9,15,PSG Krishnammal
5406,9,16,Varatharaja Mills
5407,9,17,CheranMaNagar
sno,route_id,stop_id,stop_name
5408,90,1,Ukkadam
5409,90,2,BigBazaar
5410,90,3,Town Hall
5411,90,4,Government Hospital
5412,90,5,Railway Station
5413,90,6,Collectorate/DSP
5414,90,7,Uppilipalayam - Avinashi rd
5415,90,8,VOC Park
5416,90,9,Anna Statue - Avinashi rd
5417,90,10,Residency
5418,90,11,Lakshmi Mills Junction
5419,90,12,Nava India - Avinashi rd
5420,90,13,Suguna Kalyana Mandapam
5421,90,14,PSG Tech - Peelamedu
5422,90,15,PSG Krishnammal
5423,90,16,Varatharaja Mills
5424,90,17,Hope College
5425,90,18,CMC - Avinashi rd
5426,90,19,CIT - CODISSIA
5427,90,20,Polytechnic - Avinashi rd
5428,90,21,PSG Arts
5429,90,22,SITRA/Airport
5430,90,23,KMCH - Avinashi rd
5431,90,24,Goldwins
5432,90,25,Thottipalayam Pirivu
5433,90,26,Rangasamy Goundan pudur
5434,90,27,Chinniyampalayam
5435,90,28,Neelambur
5436,90,29,Arasur - Avinashi road
5437,90,30,Kaniyur
sno,route_id,stop_id,stop_name
5438,90A,1,Ukkadam
5439,90A,2,BigBazaar
5440,90A,3,Town Hall
5441,90A,4,Government Hospital
5442,90A,5,Railway Station
5443,90A,6,Collectorate/DSP
5444,90A,7,Uppilipalayam - Avinashi rd
5445,90A,8,VOC Park
5446,90A,9,Anna Statue - Avinashi rd
5447,90A,10,Residency
5448,90A,11,Lakshmi Mills Junction
5449,90A,12,Nava India - Avinashi rd
5450,90A,13,Suguna Kalyana Mandapam
5451,90A,14,PSG Tech - Peelamedu
5452,90A,15,PSG Krishnammal
5453,90A,16,Varatharaja Mills
5454,90A,17,Hope College
5455,90A,18,CMC - Avinashi rd
5456,90A,19,CIT - CODISSIA
5457,90A,20,Polytechnic - Avinashi rd
5458,90A,21,PSG Arts
5459,90A,22,SITRA/Airport
5460,90A,23,KMCH - Avinashi rd
5461,90A,24,Goldwins
5462,90A,25,Thottipalayam Pirivu
5463,90A,26,Rangasamy Goundan pudur
5464,90A,27,Chinniyampalayam
5465,90A,28,Neelambur
5466,90A,29,Arasur - Avinashi road
5467,90A,30,Kaniyur
5468,90A,31,Karumathampatti
5469,90A,32,Somanur
sno,route_id,stop_id,stop_name
5470,90B,1,Ukkadam
5471,90B,2,BigBazaar
5472,90B,3,Town Hall
5473,90B,4,Government Hospital
5474,90B,5,Railway Station
5475,90B,6,Collectorate/DSP
5476,90B,7,Uppilipalayam - Avinashi rd
5477,90B,8,VOC Park
5478,90B,9,Anna Statue - Avinashi rd
5479,90B,10,Residency
5480,90B,11,Lakshmi Mills Junction
5481,90B,12,Nava India - Avinashi rd
5482,90B,13,Suguna Kalyana Mandapam
5483,90B,14,PSG Tech - Peelamedu
5484,90B,15,PSG Krishnammal
5485,90B,16,Varatharaja Mills
5486,90B,17,Hope College
5487,90B,18,CMC - Avinashi rd
5488,90B,19,CIT - CODISSIA
5489,90B,20,Polytechnic - Avinashi rd
5490,90B,21,PSG Arts
5491,90B,22,SITRA/Airport
5492,90B,23,KMCH - Avinashi rd
5493,90B,24,Goldwins
5494,90B,25,Thottipalayam Pirivu
5495,90B,26,Rangasamy Goundan pudur
5496,90B,27,Chinniyampalayam
5497,90B,28,Neelambur
sno,route_id,stop_id,stop_name
5498,92,1,Ukkadam
5499,92,2,BigBazaar
5500,92,3,Town Hall
5501,92,4,Government Hospital
5502,92,5,Railway Station
5503,92,6,Collectorate/DSP
5504,92,7,Uppilipalayam - Avinashi rd
5505,92,8,VOC Park
5506,92,9,Anna Statue - Avinashi rd
5507,92,10,Residency
5508,92,11,Lakshmi Mills Junction
5509,92,12,Nava India - Avinashi rd
5510,92,13,Suguna Kalyana Mandapam
5511,92,14,PSG Tech - Peelamedu
5512,92,15,PSG Krishnammal
5513,92,16,Varatharaja Mills
5514,92,17,Hope College
5515,92,18,CMC - Avinashi rd
5516,92,19,CIT - CODISSIA
5517,92,20,Polytechnic - Avinashi rd
5518,92,21,PSG Arts
5519,92,22,SITRA/Airport
5520,92,23,KMCH - Avinashi rd
5521,92,24,Goldwins
5522,92,25,Thottipalayam Pirivu
5523,92,26,Rangasamy Goundan pudur
5524,92,27,Chinniyampalayam
5525,92,28,Neelambur
sno,route_id,stop_id,stop_name
5526,95,1,Singanallur
5527,95,2,Varatharajapuram
5528,95,3,Uppilipalayam - Sowripalayam
5529,95,4,GV Residency
5530,95,5,Sowripalayam
5531,95,6,PSG Hospital
5532,95,7,PSG Tech - Peelamedu
5533,95,8,Suguna Kalyana Mandapam
5534,95,9,Nava India - Avinashi rd
5535,95,10,Lakshmi Mills Junction
5536,95,11,Mani School/GKNM Hospl
5537,95,12,Womens Polytechnic
5538,95,13,Gandhipuram
sno,route_id,stop_id,stop_name
5539,95A,1,Gandhipuram
5540,95A,2,Womens Polytechnic
5541,95A,3,Mani School/GKNM Hospl
5542,95A,4,Lakshmi Mills Junction
5543,95A,5,Kidney Centre
5544,95A,6,Dhamu nagar - Puliakulam
5545,95A,7,Puliakulam
5546,95A,8,Udayampalayam - Sowripalayam
5547,95A,9,Sowripalayam
5548,95A,10,GV Residency
5549,95A,11,Uppilipalayam - Sowripalayam
5550,95A,12,Varatharajapuram
5551,95A,13,Singanallur
5552,95A,14,Vasantha mills - Singanallur
5553,95A,15,Jai Shanthi - Singanallur
5554,95A,16,Ondipudur
5555,95A,17,Pattanam
sno,route_id,stop_id,stop_name
5556,96,1,Gandhipuram
5557,96,2,Alankar - Nanjappa rd
5558,96,3,Park Gate - Nanjappa rd
5559,96,4,VOC Park
5560,96,5,Uppilipalayam - Avinashi rd
5561,96,6,Marakkadai
5562,96,7,RMS Office
5563,96,8,Town Hall
5564,96,9,BigBazaar
5565,96,10,Ukkadam
5566,96,11,Karumbukkadai - Ukkadam
5567,96,12,Aathupalam/L&T tollbooth
5568,96,13,Kuniamuthur
5569,96,14,Edayarpalayam - Palghat rd
5570,96,15,Kovaipudur Pirivu
5571,96,16,Mailkal - Madukkarai
5572,96,17,Madukkarai
5573,96,18,Ettimadai
5574,96,19,KG Chavadi - Palghat rd
5575,96,20,Walayar
sno,route_id,stop_id,stop_name
5576,9A,1,PSG Krishnammal
5577,9A,2,PSG Tech - Peelamedu
5578,9A,3,Suguna Kalyana Mandapam
5579,9A,4,Nava India - Avinashi rd
5580,9A,5,Lakshmi Mills Junction
5581,9A,6,Residency
5582,9A,7,Anna Statue - Avinashi rd
5583,9A,8,VOC Park
5584,9A,9,Uppilipalayam - Avinashi rd
5585,9A,10,Collectorate/DSP
5586,9A,11,Railway Station
5587,9A,12,Government Hospital
5588,9A,13,Town Hall
5589,9A,14,Karuppagoundan st
5590,9A,15,Chetti veedhi - Perur rd
5591,9A,16,Shivalaya - Perur rd
5592,9A,17,Muthusamy Colony - Selvapuram
5593,9A,18,LIC Colony - Selvapuram
5594,9A,19,Telungupalayam Pirivu - Perur
5595,9A,20,Aathupalam - Perur rd
5596,9A,21,Tamil kalloori - Perur
5597,9A,22,Perur
5598,9A,23,Sundakkamuthur
5599,9A,24,Kovaipudur
sno,route_id,stop_id,stop_name
5600,S9,1,Ondipudur
5601,S9,2,Jai Shanthi - Singanallur
5602,S9,3,Vasantha mills - Singanallur
5603,S9,4,Singanallur
5604,S9,5,Varatharajapuram
5605,S9,6,ESI - Singanallur
5606,S9,7,LIONs - Singanallur
5607,S9,8,Ramanuja Nagar
5608,S9,9,Manis Theatre
5609,S9,10,Hope College
5610,S9,11,Varatharaja Mills
5611,S9,12,PSG Krishnammal
5612,S9,13,PSG Tech - Peelamedu
5613,S9,14,Suguna Kalyana Mandapam
5614,S9,15,Nava India - Avinashi rd
5615,S9,16,Lakshmi Mills Junction
5616,S9,17,Mani School/GKNM Hospl
5617,S9,18,Womens Polytechnic
5618,S9,19,Gandhipuram
5619,S9,20,100 feet/GP
5620,S9,21,Omni bus stand
5621,S9,22,Lakshmi puram - Sathy rd
5622,S9,23,Textool - Sathy rd
5623,S9,24,Ganapathy
5624,S9,25,CMS - Ganapathy
5625,S9,26,Maniakaranpalayam
5626,S9,27,Udayampalayam - Ganapathy
sno,route_id,stop_id,stop_name
5627,S8,1,Saibaba Kovil
5628,S8,2,Sivanandha Colony
5629,S8,3,Power House
5630,S8,4,Karpagam Complex - 100ft
5631,S8,5,Kalyan - 100ft rd
5632,S8,6,100 feet/GP
5633,S8,7,Gandhipuram
5634,S8,8,Womens Polytechnic
5635,S8,9,Mani School/GKNM Hospl
5636,S8,10,Lakshmi Mills Junction
5637,S8,11,Nava India - Avinashi rd
5638,S8,12,Suguna Kalyana Mandapam
5639,S8,13,PSG Tech - Peelamedu
5640,S8,14,PSG Krishnammal
5641,S8,15,Varatharaja Mills
5642,S8,16,Hope College
5643,S8,17,CMC - Avinashi rd
5644,S8,18,CIT - CODISSIA
5645,S8,19,Polytechnic - Avinashi rd
5646,S8,20,PSG Arts
5647,S8,21,SITRA/Airport
sno,route_id,stop_id,stop_name
5648,S7A,1,Singanallur
5649,S7A,2,Varatharajapuram
5650,S7A,3,ESI - Singanallur
5651,S7A,4,LIONs - Singanallur
5652,S7A,5,Ramanuja Nagar
5653,S7A,6,Manis Theatre
5654,S7A,7,Hope College
5655,S7A,8,Varatharaja Mills
5656,S7A,9,PSG Krishnammal
5657,S7A,10,PSG Tech - Peelamedu
5658,S7A,11,Suguna Kalyana Mandapam
5659,S7A,12,Nava India - Avinashi rd
5660,S7A,13,Lakshmi Mills Junction
5661,S7A,14,Mani School/GKNM Hospl
5662,S7A,15,Womens Polytechnic
5663,S7A,16,Gandhipuram
5664,S7A,17,Alankar - Nanjappa rd
5665,S7A,18,Park Gate - Nanjappa rd
5666,S7A,19,VOC Park
5667,S7A,20,Uppilipalayam - Avinashi rd
5668,S7A,21,Marakkadai
5669,S7A,22,RMS Office
5670,S7A,23,Town Hall
5671,S7A,24,BigBazaar
5672,S7A,25,Ukkadam
5673,S7A,26,Karumbukkadai - Ukkadam
5674,S7A,27,Aathupalam/L&T tollbooth
5675,S7A,28,Kuniamuthur
5676,S7A,29,Edayarpalayam - Palghat rd
5677,S7A,30,Kovaipudur Pirivu
5678,S7A,31,Kovaipudur
sno,route_id,stop_id,stop_name
5679,S7,1,Ondipudur
5680,S7,2,Jai Shanthi - Singanallur
5681,S7,3,Vasantha mills - Singanallur
5682,S7,4,Singanallur
5683,S7,5,Varatharajapuram
5684,S7,6,ESI - Singanallur
5685,S7,7,LIONs - Singanallur
5686,S7,8,Ramanuja Nagar
5687,S7,9,Manis Theatre
5688,S7,10,Hope College
5689,S7,11,Varatharaja Mills
5690,S7,12,PSG Krishnammal
5691,S7,13,PSG Tech - Peelamedu
5692,S7,14,Suguna Kalyana Mandapam
5693,S7,15,Nava India - Avinashi rd
5694,S7,16,Lakshmi Mills Junction
5695,S7,17,Mani School/GKNM Hospl
5696,S7,18,Womens Polytechnic
5697,S7,19,Gandhipuram
5698,S7,20,Alankar - Nanjappa rd
5699,S7,21,Park Gate - Nanjappa rd
5700,S7,22,VOC Park
5701,S7,23,Uppilipalayam - Avinashi rd
5702,S7,24,Marakkadai
5703,S7,25,RMS Office
5704,S7,26,Town Hall
5705,S7,27,BigBazaar
5706,S7,28,Ukkadam
5707,S7,29,Karumbukkadai - Ukkadam
5708,S7,30,Aathupalam/L&T tollbooth
5709,S7,31,Kuniamuthur
5710,S7,32,Edayarpalayam - Palghat rd
5711,S7,33,Kovaipudur Pirivu
5712,S7,34,Kovaipudur
sno,route_id,stop_id,stop_name
5713,S6,1,ESI - Singanallur
5714,S6,2,Varatharajapuram
5715,S6,3,Singanallur
5716,S6,4,Housing Unit - Singanallur
5717,S6,5,Boat House - Singanallur
5718,S6,6,Rajalakshmi mills/PERKS
5719,S6,7,Central studio - SInganallur
5720,S6,8,Iyer Hospital - Trichy rd
5721,S6,9,Sowripalayam Pirivu
5722,S6,10,Ramanathapuram
5723,S6,11,Olympus - Ramanathapuram
5724,S6,12,Sungam
5725,S6,13,Sreepathi/Kannan
5726,S6,14,Rainbow - Trichy rd
5727,S6,15,Government Hospital
5728,S6,16,Town Hall
5729,S6,17,Marakkadai
5730,S6,18,Sukravarpettai
5731,S6,19,Flower Market
5732,S6,20,North Coimbatore/Vadakovai
5733,S6,21,TVS - MTP rd
5734,S6,22,Muthu theatre - MTP rd
5735,S6,23,Murugan mills - MTP rd
5736,S6,24,Saibaba Kovil
5737,S6,25,Eru Company - MTP rd
5738,S6,26,Housing unit - Kovundampalayam
5739,S6,27,Kavundampalayam
5740,S6,28,Cheran Nagar - MTP rd
5741,S6,29,ITI - MTP rd
5742,S6,30,GN mills - MTP rd
5743,S6,31,Vellakinar Pirivu - MTP rd
5744,S6,32,Thudiyalur
5745,S6,33,Cheran Colony
5746,S6,34,Vellakinar
sno,route_id,stop_id,stop_name
5470,S3BB,1,Theethipalayam - Perur
5471,S3BB,2,Kovai Kondattam
5472,S3BB,3,Perur
5473,S3BB,4,Tamil kalloori - Perur
5474,S3BB,5,Aathupalam - Perur rd
5475,S3BB,6,Telungupalayam Pirivu - Perur
5476,S3BB,7,LIC Colony - Selvapuram
5477,S3BB,8,Muthusamy Colony - Selvapuram
5478,S3BB,9,Shivalaya - Perur rd
5479,S3BB,10,Chetti veedhi - Perur rd
5480,S3BB,11,Karuppagoundan st
5481,S3BB,12,Town Hall
5482,S3BB,13,Marakkadai
5483,S3BB,14,RMS Office
5484,S3BB,15,Uppilipalayam - Avinashi rd
5485,S3BB,16,VOC Park
5486,S3BB,17,Park Gate - Nanjappa rd
5487,S3BB,18,Alankar - Nanjappa rd
5488,S3BB,19,Gandhipuram
5489,S3BB,20,100 feet/GP
5490,S3BB,21,Omni bus stand
5491,S3BB,22,Lakshmi puram - Sathy rd
5492,S3BB,23,Textool - Sathy rd
5493,S3BB,24,Ganapathy
5494,S3BB,25,CMS - Ganapathy
5495,S3BB,26,Athipalayam Pirivu - Sathy rd
5496,S3BB,27,Bharathi nagar - Sathy rd
5497,S3BB,28,Ramakrishna mill - Sathy rd
5498,S3BB,29,Ganapathy Managar
sno,route_id,stop_id,stop_name
5499,S3A,1,Theethipalayam - Perur
5500,S3A,2,Kovai Kondattam
5501,S3A,3,Perur
5502,S3A,4,Tamil kalloori - Perur
5503,S3A,5,Aathupalam - Perur rd
5504,S3A,6,Telungupalayam Pirivu - Perur
5505,S3A,7,LIC Colony - Selvapuram
5506,S3A,8,Muthusamy Colony - Selvapuram
5507,S3A,9,Shivalaya - Perur rd
5508,S3A,10,Chetti veedhi - Perur rd
5509,S3A,11,Karuppagoundan st
5510,S3A,12,Town Hall
5511,S3A,13,Marakkadai
5512,S3A,14,RMS Office
5513,S3A,15,Uppilipalayam - Avinashi rd
5514,S3A,16,VOC Park
5515,S3A,17,Park Gate - Nanjappa rd
5516,S3A,18,Alankar - Nanjappa rd
5517,S3A,19,Gandhipuram
sno,route_id,stop_id,stop_name
5518,S30,1,Kovaipudur
5519,S30,2,Kovaipudur Pirivu
5520,S30,3,Edayarpalayam - Palghat rd
5521,S30,4,Kuniamuthur
5522,S30,5,Aathupalam/L&T tollbooth
5523,S30,6,Karumbukkadai - Ukkadam
5524,S30,7,Ukkadam
5525,S30,8,BigBazaar
5526,S30,9,Town Hall
5527,S30,10,Government Hospital
5528,S30,11,Railway Station
5529,S30,12,Collectorate/DSP
5530,S30,13,Uppilipalayam - Avinashi rd
5531,S30,14,VOC Park
5532,S30,15,Anna Statue - Avinashi rd
5533,S30,16,Residency
5534,S30,17,Lakshmi Mills Junction
5535,S30,18,Nava India - Avinashi rd
5536,S30,19,Suguna Kalyana Mandapam
5537,S30,20,PSG Tech - Peelamedu
5538,S30,21,PSG Krishnammal
5539,S30,22,Varatharaja Mills
5540,S30,23,Thanner Pandhal
5541,S30,24,CheranMaNagar
sno,route_id,stop_id,stop_name
5542,S3,1,Varatharajapuram
5543,S3,2,Uppilipalayam - Sowripalayam
5544,S3,3,GV Residency
5545,S3,4,Sowripalayam
5546,S3,5,Udayampalayam - Sowripalayam
5547,S3,6,Puliakulam
5548,S3,7,Sungam
5549,S3,8,Sreepathi/Kannan
5550,S3,9,Rainbow - Trichy rd
5551,S3,10,Government Hospital
5552,S3,11,Town Hall
5553,S3,12,Karuppagoundan st
5554,S3,13,Chetti veedhi - Perur rd
5555,S3,14,Shivalaya - Perur rd
5556,S3,15,Muthusamy Colony - Selvapuram
5557,S3,16,LIC Colony - Selvapuram
5558,S3,17,Telungupalayam Pirivu - Perur
5559,S3,18,Aathupalam - Perur rd
5560,S3,19,Tamil kalloori - Perur
5561,S3,20,Perur
5562,S3,21,Kovai Kondattam
5563,S3,22,Theethipalayam - Perur
sno,route_id,stop_id,stop_name
5564,S3BB,1,Theethipalayam - Perur
5565,S3BB,2,Kovai Kondattam
5566,S3BB,3,Perur
5567,S3BB,4,Tamil kalloori - Perur
5568,S3BB,5,Aathupalam - Perur rd
5569,S3BB,6,Telungupalayam Pirivu - Perur
5570,S3BB,7,LIC Colony - Selvapuram
5571,S3BB,8,Muthusamy Colony - Selvapuram
5572,S3BB,9,Shivalaya - Perur rd
5573,S3BB,10,Chetti veedhi - Perur rd
5574,S3BB,11,Karuppagoundan st
5575,S3BB,12,Town Hall
5576,S3BB,13,Marakkadai
5577,S3BB,14,RMS Office
5578,S3BB,15,Uppilipalayam - Avinashi rd
5579,S3BB,16,VOC Park
5580,S3BB,17,Park Gate - Nanjappa rd
5581,S3BB,18,Alankar - Nanjappa rd
5582,S3BB,19,Gandhipuram
5583,S3BB,20,100 feet/GP
5584,S3BB,21,Omni bus stand
5585,S3BB,22,Lakshmi puram - Sathy rd
5586,S3BB,23,Textool - Sathy rd
5587,S3BB,24,Ganapathy
5588,S3BB,25,CMS - Ganapathy
5589,S3BB,26,Athipalayam Pirivu - Sathy rd
5590,S3BB,27,Bharathi nagar - Sathy rd
5591,S3BB,28,Ramakrishna mill - Sathy rd
5592,S3BB,29,Ganapathy Managar
sno,route_id,stop_id,stop_name
5593,S3A,1,Theethipalayam - Perur
5594,S3A,2,Kovai Kondattam
5595,S3A,3,Perur
5596,S3A,4,Tamil kalloori - Perur
5597,S3A,5,Aathupalam - Perur rd
5598,S3A,6,Telungupalayam Pirivu - Perur
5599,S3A,7,LIC Colony - Selvapuram
5600,S3A,8,Muthusamy Colony - Selvapuram
5601,S3A,9,Shivalaya - Perur rd
5602,S3A,10,Chetti veedhi - Perur rd
5603,S3A,11,Karuppagoundan st
5604,S3A,12,Town Hall
5605,S3A,13,Marakkadai
5606,S3A,14,RMS Office
5607,S3A,15,Uppilipalayam - Avinashi rd
5608,S3A,16,VOC Park
5609,S3A,17,Park Gate - Nanjappa rd
5610,S3A,18,Alankar - Nanjappa rd
5611,S3A,19,Gandhipuram
sno,route_id,stop_id,stop_name
5612,S30,1,Kovaipudur
5613,S30,2,Kovaipudur Pirivu
5614,S30,3,Edayarpalayam - Palghat rd
5615,S30,4,Kuniamuthur
5616,S30,5,Aathupalam/L&T tollbooth
5617,S30,6,Karumbukkadai - Ukkadam
5618,S30,7,Ukkadam
5619,S30,8,BigBazaar
5620,S30,9,Town Hall
5621,S30,10,Government Hospital
5622,S30,11,Railway Station
5623,S30,12,Collectorate/DSP
5624,S30,13,Uppilipalayam - Avinashi rd
5625,S30,14,VOC Park
5626,S30,15,Anna Statue - Avinashi rd
5627,S30,16,Residency
5628,S30,17,Lakshmi Mills Junction
5629,S30,18,Nava India - Avinashi rd
5630,S30,19,Suguna Kalyana Mandapam
5631,S30,20,PSG Tech - Peelamedu
5632,S30,21,PSG Krishnammal
5633,S30,22,Varatharaja Mills
5634,S30,23,Thanner Pandhal
5635,S30,24,CheranMaNagar
sno,route_id,stop_id,stop_name
5636,S3,1,Varatharajapuram
5637,S3,2,Uppilipalayam - Sowripalayam
5638,S3,3,GV Residency
5639,S3,4,Sowripalayam
5640,S3,5,Udayampalayam - Sowripalayam
5641,S3,6,Puliakulam
5642,S3,7,Sungam
5643,S3,8,Sreepathi/Kannan
5644,S3,9,Rainbow - Trichy rd
5645,S3,10,Government Hospital
5646,S3,11,Town Hall
5647,S3,12,Karuppagoundan st
5648,S3,13,Chetti veedhi - Perur rd
5649,S3,14,Shivalaya - Perur rd
5650,S3,15,Muthusamy Colony - Selvapuram
5651,S3,16,LIC Colony - Selvapuram
5652,S3,17,Telungupalayam Pirivu - Perur
5653,S3,18,Aathupalam - Perur rd
5654,S3,19,Tamil kalloori - Perur
5655,S3,20,Perur
5656,S3,21,Kovai Kondattam
5657,S3,22,Theethipalayam - Perur
sno,route_id,stop_id,stop_name
5658,S27,1,Ukkadam
5659,S27,2,BigBazaar
5660,S27,3,Town Hall
5661,S27,4,Government Hospital
5662,S27,5,Rainbow - Trichy rd
5663,S27,6,Sreepathi/Kannan
5664,S27,7,Sungam
5665,S27,8,Olympus - Ramanathapuram
5666,S27,9,Ramanathapuram
5667,S27,10,Sowripalayam Pirivu
5668,S27,11,Iyer Hospital - Trichy rd
5669,S27,12,Central studio - SInganallur
5670,S27,13,Rajalakshmi mills/PERKS
5671,S27,14,Boat House - Singanallur
5672,S27,15,Housing Unit - Singanallur
5673,S27,16,Singanallur
5674,S27,17,Vasantha mills - Singanallur
5675,S27,18,Jai Shanthi - Singanallur
5676,S27,19,Ondipudur
5677,S27,20,Irugur Pirivu
5678,S27,21,Sinthamanipudur
5679,S27,22,Pappampatti Pirivu
5680,S27,23,Pallapalayam
5681,S27,24,Pappampatti
sno,route_id,stop_id,stop_name
5682,S26,1,Nanjundapuram
5683,S26,2,Ramanathapuram
5684,S26,3,Olympus - Ramanathapuram
5685,S26,4,Sungam
5686,S26,5,Sreepathi/Kannan
5687,S26,6,Rainbow - Trichy rd
5688,S26,7,Government Hospital
5689,S26,8,Railway Station
5690,S26,9,Collectorate/DSP
5691,S26,10,Sukravarpettai
5692,S26,11,Gandhi Park
5693,S26,12,Pal Company(Aavin)
5694,S26,13,Lawley Road
5695,S26,14,Agricultural University
5696,S26,15,PN pudur - Vadavalli
5697,S26,16,Mullai Nagar - Vadavalli
5698,S26,17,Vadavalli
5699,S26,18,Aalamaram - Vadavalli
5700,S26,19,Navavoor Pirivu
5701,S26,20,Kalveerampalayam
5702,S26,21,Bharathiyar University
5703,S26,22,IOB Colony - Maruthamalai
5704,S26,23,Law College
5705,S26,24,Maruthamalai
sno,route_id,stop_id,stop_name
5706,S25,1,Gandhipuram
5707,S25,2,Alankar - Nanjappa rd
5708,S25,3,Park Gate - Nanjappa rd
5709,S25,4,VOC Park
5710,S25,5,Uppilipalayam - Avinashi rd
5711,S25,6,Collectorate/DSP
5712,S25,7,Railway Station
5713,S25,8,Government Hospital
5714,S25,9,Town Hall
5715,S25,10,Karuppagoundan st
5716,S25,11,Chetti veedhi - Perur rd
5717,S25,12,Shivalaya - Perur rd
5718,S25,13,Muthusamy Colony - Selvapuram
5719,S25,14,LIC Colony - Selvapuram
5720,S25,15,Telungupalayam Pirivu - Perur
5721,S25,16,Aathupalam - Perur rd
5722,S25,17,Tamil kalloori - Perur
5723,S25,18,Perur
5724,S25,19,Sundakkamuthur
5725,S25,20,Kovaipudur
